"datetime","main.aqi","components.co","components.no","components.no2","components.o3","components.so2","components.pm2_5","components.pm10","components.nh3","coord.lon","coord.lat","extraction_date_time","city_name"
"2023-12-03 08:31:08+08:00",2.0,293.73,0.61,3.6,66.52,5.54,3.09,3.89,2.38,119.9811,16.1561,"2023-12-03 08:31:08.809361+08:00","Alaminos"
"2023-12-03 08:31:11+08:00",1.0,297.07,0.4,1.95,55.79,0.89,4.02,5.52,1.85,120.5833,15.15,"2023-12-03 08:31:11.499389+08:00","Angeles City"
"2023-12-03 08:31:13+08:00",2.0,257.02,0.15,0.86,60.08,0.25,2.0,2.63,0.9,121.19,15.6181,"2023-12-03 08:31:13.709895+08:00","Antipolo"
"2023-12-03 08:31:15+08:00",1.0,195.27,0.03,0.75,56.51,1.8,2.04,2.32,0.27,123.5085,12.2285,"2023-12-03 08:31:16.081720+08:00","Bacolod"
"2023-12-03 08:31:18+08:00",2.0,473.98,2.15,12.34,65.8,8.94,9.5,18.76,4.75,120.929,14.459000000000001,"2023-12-03 08:31:18.564690+08:00","Bacoor"
"2023-12-03 08:31:20+08:00",1.0,216.96,0.19,1.19,58.65,2.15,3.91,5.47,0.49,122.8333,10.5333,"2023-12-03 08:31:20.838133+08:00","Bago City"
"2023-12-03 08:31:22+08:00",1.0,300.41,0.27,1.65,55.08,1.59,4.91,5.71,1.84,120.5931,16.4164,"2023-12-03 08:31:23.304894+08:00","Baguio"
"2023-12-03 08:31:24+08:00",1.0,200.27,0.13,0.99,50.78,0.61,1.93,2.37,0.54,123.1228,9.5911,"2023-12-03 08:31:25.092927+08:00","Bais"
"2023-12-03 08:31:27+08:00",2.0,283.72,0.42,2.53,69.38,1.74,3.85,6.41,1.49,120.5361,14.6761,"2023-12-03 08:31:27.875556+08:00","Balanga"
"2023-12-03 08:31:30+08:00",2.0,273.71,0.12,0.95,77.25,0.27,1.25,1.5,0.78,120.5649,18.0554,"2023-12-03 08:31:30.744704+08:00","Batac City"
"2023-12-03 08:31:32+08:00",1.0,240.33,1.34,6.34,59.37,6.38,3.97,8.42,1.5,121.05,13.75,"2023-12-03 08:31:33.166308+08:00","Batangas City"
"2023-12-03 08:31:34+08:00",1.0,206.95,0.17,1.26,50.78,0.72,2.16,2.5,0.67,122.8011,9.3636,"2023-12-03 08:31:34.632301+08:00","Bayawan"
"2023-12-03 08:31:37+08:00",2.0,198.6,0.03,0.32,64.37,6.86,3.3,4.08,0.13,123.7135,13.4083,"2023-12-03 08:31:37.341742+08:00","Baybay"
"2023-12-03 08:31:39+08:00",1.0,206.95,0.13,2.79,27.18,0.89,2.31,2.81,0.46,125.7675,8.7561,"2023-12-03 08:31:39.764474+08:00","Bayugan"
"2023-12-03 08:31:41+08:00",1.0,213.62,0.2,1.84,41.84,0.54,1.85,2.47,0.56,125.0336,11.0725,"2023-12-03 08:31:41.582691+08:00","Bislig"
"2023-12-03 08:31:44+08:00",2.0,363.83,1.51,9.25,66.52,12.16,5.69,13.21,3.58,121.0807,14.3427,"2023-12-03 08:31:44.994676+08:00","Biñan"
"2023-12-03 08:31:46+08:00",1.0,200.27,0.14,0.64,50.07,0.63,1.7,2.2,0.29,124.0055,11.0517,"2023-12-03 08:31:46.826564+08:00","Bogo"
"2023-12-03 08:31:48+08:00",1.0,183.58,0.02,0.56,49.35,0.31,2.96,4.9,0.03,125.4319,11.6081,"2023-12-03 08:31:48.669523+08:00","Borongan"
"2023-12-03 08:31:50+08:00",1.0,200.27,0.05,0.95,50.07,0.25,0.79,0.97,0.29,125.5436,8.9492,"2023-12-03 08:31:51.035955+08:00","Butuan"
"2023-12-03 08:31:52+08:00",1.0,230.31,0.17,2.16,27.54,0.42,2.62,3.09,0.98,125.5344,9.1236,"2023-12-03 08:31:52.368085+08:00","Cabadbaran"
"2023-12-03 08:31:53+08:00",2.0,280.38,0.24,1.37,63.66,0.47,2.97,4.03,1.54,120.9667,15.4833,"2023-12-03 08:31:54.047792+08:00","Cabanatuan City"
"2023-12-03 08:31:55+08:00",2.0,363.83,1.51,9.25,66.52,12.16,5.69,13.21,3.58,121.1262,14.2726,"2023-12-03 08:31:55.617011+08:00","Cabuyao"
"2023-12-03 08:31:58+08:00",1.0,191.93,0.05,0.32,57.22,1.74,2.88,4.26,0.01,123.2856,10.9506,"2023-12-03 08:31:58.389468+08:00","Cadiz"
"2023-12-03 08:32:00+08:00",1.0,313.76,0.22,3.21,45.42,1.24,5.38,6.79,3.07,124.6472,8.4822,"2023-12-03 08:32:00.953335+08:00","Cagayan de Oro"
"2023-12-03 08:32:03+08:00",2.0,220.3,0.58,4.07,62.94,4.41,3.02,7.45,1.19,120.8133,13.9324,"2023-12-03 08:32:03.360787+08:00","Calaca"
"2023-12-03 08:32:04+08:00",2.0,363.83,1.51,9.25,66.52,12.16,5.69,13.21,3.58,121.1653,14.2117,"2023-12-03 08:32:04.996360+08:00","Calamba"
"2023-12-03 08:32:07+08:00",2.0,193.6,0.29,2.16,67.23,2.44,2.58,6.41,0.17,121.1803,13.4117,"2023-12-03 08:32:07.992024+08:00","Calapan"
"2023-12-03 08:32:10+08:00",1.0,193.6,0.02,0.51,39.7,3.52,2.77,3.54,0.23,124.6,12.0667,"2023-12-03 08:32:10.272737+08:00","Calbayog City"
"2023-12-03 08:32:11+08:00",2.0,333.79,0.79,4.84,67.95,3.4,5.42,9.81,2.91,120.9667,14.65,"2023-12-03 08:32:12.049775+08:00","Caloocan City"
"2023-12-03 08:32:13+08:00",1.0,270.37,0.17,0.94,50.07,0.42,2.5,2.85,1.66,120.4517,17.1947,"2023-12-03 08:32:13.953177+08:00","Candon"
"2023-12-03 08:32:15+08:00",1.0,330.45,1.19,4.03,41.84,1.25,6.21,7.78,3.83,123.1964,10.3864,"2023-12-03 08:32:15.684544+08:00","Canlaon"
"2023-12-03 08:32:18+08:00",1.0,220.3,0.45,2.21,55.79,3.13,2.52,4.01,1.19,123.6402,10.1061,"2023-12-03 08:32:18.499842+08:00","Carcar"
"2023-12-03 08:32:20+08:00",2.0,363.83,1.51,9.25,66.52,12.16,5.69,13.21,3.58,121.0576,14.3132,"2023-12-03 08:32:20.600023+08:00","Carmona"
"2023-12-03 08:32:22+08:00",1.0,191.93,0.05,0.46,42.2,0.47,1.74,2.34,0.35,124.8861,11.7753,"2023-12-03 08:32:23.051142+08:00","Catbalogan"
"2023-12-03 08:32:25+08:00",1.0,410.56,0.91,4.33,24.68,0.75,7.77,9.18,10.39,121.7725,16.9347,"2023-12-03 08:32:25.761642+08:00","Cauayan"
"2023-12-03 08:32:27+08:00",2.0,473.98,2.15,12.34,65.8,8.94,9.5,18.76,4.75,120.9169,14.4825,"2023-12-03 08:32:27.758534+08:00","Cavite City"
"2023-12-03 08:32:29+08:00",1.0,240.33,0.53,2.55,47.21,3.01,2.78,3.96,1.74,123.8907,10.3167,"2023-12-03 08:32:29.445815+08:00","Cebu City"
"2023-12-03 08:32:31+08:00",2.0,317.1,0.95,5.23,63.66,5.72,4.38,9.97,2.66,121.1,14.6333,"2023-12-03 08:32:31.938360+08:00","City of Marikina"
"2023-12-03 08:32:34+08:00",1.0,195.27,0.03,0.75,56.51,1.8,2.04,2.32,0.27,123.5833,12.3333,"2023-12-03 08:32:34.427812+08:00","City of Masbate"
"2023-12-03 08:32:36+08:00",1.0,226.97,0.13,1.84,47.21,1.3,2.97,3.8,1.22,122.65,11.15,"2023-12-03 08:32:36.896172+08:00","City of Passi"
"2023-12-03 08:32:38+08:00",1.0,196.93,0.03,0.57,58.65,2.41,1.73,2.26,0.31,123.9833,12.9833,"2023-12-03 08:32:38.775820+08:00","City of Sorsogon"
"2023-12-03 08:32:40+08:00",1.0,327.11,0.35,1.8,41.84,0.44,6.99,8.12,2.47,124.2464,7.2236,"2023-12-03 08:32:40.393570+08:00","Cotabato"
"2023-12-03 08:32:41+08:00",1.0,290.39,0.1,0.88,54.36,0.14,3.7,3.98,0.57,121.5047,17.7061,"2023-12-03 08:32:42.096034+08:00","Dagupan"
"2023-12-03 08:32:44+08:00",1.0,195.27,0.26,1.5,56.51,2.47,1.65,2.11,0.22,124.0272,10.5208,"2023-12-03 08:32:44.528467+08:00","Danao"
"2023-12-03 08:32:46+08:00",1.0,240.33,0.53,2.55,47.21,3.01,2.78,3.96,1.74,123.9469,10.2706,"2023-12-03 08:32:47.128298+08:00","Dapitan"
"2023-12-03 08:32:49+08:00",2.0,427.25,1.57,11.48,69.38,11.21,8.12,15.99,4.31,120.9367,14.3294,"2023-12-03 08:32:49.575465+08:00","Dasmariñas"
"2023-12-03 08:32:51+08:00",1.0,230.31,0.35,2.91,38.62,0.81,0.98,1.38,0.73,125.6128,7.0731,"2023-12-03 08:32:51.967168+08:00","Davao"
"2023-12-03 08:32:54+08:00",1.0,230.31,0.17,1.52,42.56,0.47,1.34,1.88,1.2,125.3572,6.7497,"2023-12-03 08:32:54.646557+08:00","Digos"
"2023-12-03 08:32:56+08:00",1.0,193.6,0.02,0.66,55.08,0.29,0.95,1.13,0.14,123.3414,8.5894,"2023-12-03 08:32:57.217043+08:00","Dipolog"
"2023-12-03 08:32:58+08:00",1.0,203.61,0.22,1.46,55.08,1.06,2.01,2.4,0.38,123.3081,9.3103,"2023-12-03 08:32:58.534850+08:00","Dumaguete"
"2023-12-03 08:32:59+08:00",1.0,220.3,0.07,1.01,49.35,0.36,1.27,1.69,1.57,124.5225,8.5631,"2023-12-03 08:33:00.094961+08:00","El Salvador"
"2023-12-03 08:33:01+08:00",1.0,190.26,0.06,0.35,56.51,1.24,2.26,3.46,0.0,123.4992,10.8403,"2023-12-03 08:33:01.397823+08:00","Escalante"
"2023-12-03 08:33:03+08:00",2.0,317.1,0.41,2.21,62.94,0.7,4.36,6.24,2.01,120.9464,15.3072,"2023-12-03 08:33:03.461408+08:00","Gapan"
"2023-12-03 08:33:05+08:00",1.0,243.66,0.07,1.2,44.35,0.25,1.92,2.4,1.38,125.1717,6.1128,"2023-12-03 08:33:05.789459+08:00","General Santos"
"2023-12-03 08:33:07+08:00",2.0,427.25,1.57,11.48,69.38,11.21,8.12,15.99,4.31,120.8817,14.3869,"2023-12-03 08:33:07.561933+08:00","General Trias"
"2023-12-03 08:33:09+08:00",2.0,190.26,0.03,0.43,60.8,0.06,0.5,0.58,0.18,125.1167,8.8333,"2023-12-03 08:33:09.671561+08:00","Gingoog City"
"2023-12-03 08:33:11+08:00",1.0,303.75,0.44,3.13,56.51,1.55,5.59,7.43,3.67,122.8706,10.0989,"2023-12-03 08:33:12.093162+08:00","Himamaylan"
"2023-12-03 08:33:14+08:00",2.0,534.06,1.09,4.5,22.35,0.58,13.6,14.69,4.75,121.8892,17.1485,"2023-12-03 08:33:14.791614+08:00","Ilagan"
"2023-12-03 08:33:16+08:00",1.0,220.3,0.11,2.16,47.92,2.09,1.46,1.99,1.98,124.4,8.25,"2023-12-03 08:33:16.255881+08:00","Iligan City"
"2023-12-03 08:33:18+08:00",1.0,240.33,0.13,1.74,55.08,1.09,2.93,3.89,1.16,122.55,10.75,"2023-12-03 08:33:19.128859+08:00","Iloilo City"
"2023-12-03 08:33:20+08:00",2.0,473.98,2.15,12.34,65.8,8.94,9.5,18.76,4.75,120.9367,14.4297,"2023-12-03 08:33:20.988381+08:00","Imus"
"2023-12-03 08:33:23+08:00",1.0,216.96,0.16,1.09,50.07,7.09,4.39,5.28,0.83,123.4167,13.4167,"2023-12-03 08:33:23.453496+08:00","Iriga City"
"2023-12-03 08:33:25+08:00",1.0,257.02,0.42,2.19,58.65,2.06,4.72,6.4,1.65,122.9888,10.2048,"2023-12-03 08:33:25.701064+08:00","Isabela"
"2023-12-03 08:33:27+08:00",1.0,250.34,0.25,1.69,52.21,0.51,2.88,3.67,2.0,122.8122,9.9889,"2023-12-03 08:33:28.016648+08:00","Kabankalan"
"2023-12-03 08:33:29+08:00",2.0,514.03,1.27,11.82,41.84,2.65,12.49,15.36,18.24,125.0894,7.0083,"2023-12-03 08:33:30.089247+08:00","Kidapawan"
"2023-12-03 08:33:32+08:00",2.0,647.54,1.13,12.68,39.34,2.68,19.98,23.51,23.05,124.8469,6.5031,"2023-12-03 08:33:32.319126+08:00","Koronadal"
"2023-12-03 08:33:33+08:00",1.0,216.96,0.19,1.19,58.65,2.15,3.91,5.47,0.49,122.9208,10.4233,"2023-12-03 08:33:33.912201+08:00","La Carlota"
"2023-12-03 08:33:35+08:00",1.0,196.93,0.1,1.97,36.12,0.66,0.76,0.88,0.55,125.7022,6.0872,"2023-12-03 08:33:35.726287+08:00","Lamitan"
"2023-12-03 08:33:37+08:00",2.0,273.71,0.12,0.95,77.25,0.27,1.25,1.5,0.78,120.5936,18.1989,"2023-12-03 08:33:37.857550+08:00","Laoag"
"2023-12-03 08:33:39+08:00",1.0,240.33,0.53,2.55,47.21,3.01,2.78,3.96,1.74,123.9494,10.3103,"2023-12-03 08:33:39.890620+08:00","Lapu-Lapu City"
"2023-12-03 08:33:42+08:00",2.0,473.98,2.15,12.34,65.8,8.94,9.5,18.76,4.75,120.9828,14.4506,"2023-12-03 08:33:42.299993+08:00","Las Piñas"
"2023-12-03 08:33:44+08:00",1.0,213.62,0.1,1.59,58.65,7.63,3.16,3.76,0.46,123.7333,13.1333,"2023-12-03 08:33:44.774451+08:00","Legazpi City"
"2023-12-03 08:33:46+08:00",1.0,206.95,0.08,0.64,59.37,8.11,3.59,4.14,0.52,123.5325,13.2403,"2023-12-03 08:33:46.312239+08:00","Ligao"
"2023-12-03 08:33:48+08:00",2.0,240.33,0.42,2.83,66.52,1.82,3.2,8.51,1.66,121.1667,13.95,"2023-12-03 08:33:48.826305+08:00","Lipa City"
"2023-12-03 08:33:50+08:00",1.0,240.33,0.09,1.74,49.35,0.86,3.46,4.6,1.0,122.5967,10.8794,"2023-12-03 08:33:50.591630+08:00","Lucena"
"2023-12-03 08:33:51+08:00",1.0,240.33,0.09,1.74,49.35,0.86,3.46,4.6,1.0,122.4347,10.8925,"2023-12-03 08:33:52.124919+08:00","Maasin"
"2023-12-03 08:33:54+08:00",2.0,273.71,0.18,1.11,66.52,0.32,2.97,4.2,1.43,120.5736,15.2216,"2023-12-03 08:33:54.271726+08:00","Mabalacat City"
"2023-12-03 08:33:56+08:00",2.0,674.25,3.3,16.97,57.94,16.93,12.25,22.07,7.79,121.0327,14.5503,"2023-12-03 08:33:56.639917+08:00","Makati City"
"2023-12-03 08:33:58+08:00",2.0,220.3,0.08,0.63,78.68,0.47,0.91,1.63,0.42,119.9379,15.6361,"2023-12-03 08:33:58.612850+08:00","Malabon"
"2023-12-03 08:33:59+08:00",1.0,203.61,0.07,1.78,38.62,0.25,1.12,1.56,1.06,125.0833,8.15,"2023-12-03 08:34:00.177297+08:00","Malaybalay"
"2023-12-03 08:34:01+08:00",2.0,343.8,0.55,3.47,67.23,1.49,5.86,8.89,2.69,120.8117,14.8419,"2023-12-03 08:34:01.990474+08:00","Malolos"
"2023-12-03 08:34:03+08:00",2.0,674.25,3.3,16.97,57.94,16.93,12.25,22.07,7.79,121.0409,14.5832,"2023-12-03 08:34:03.587032+08:00","Mandaluyong City"
"2023-12-03 08:34:04+08:00",1.0,240.33,0.53,2.55,47.21,3.01,2.78,3.96,1.74,123.9333,10.3333,"2023-12-03 08:34:05.016230+08:00","Mandaue City"
"2023-12-03 08:34:06+08:00",2.0,333.79,0.79,4.84,67.95,3.4,5.42,9.81,2.91,120.9822,14.6042,"2023-12-03 08:34:06.829193+08:00","Manila"
"2023-12-03 08:34:08+08:00",1.0,320.44,0.27,4.11,31.83,1.18,6.31,7.36,4.37,124.2928,7.9986,"2023-12-03 08:34:08.981072+08:00","Marawi"
"2023-12-03 08:34:11+08:00",1.0,198.6,0.11,2.23,57.22,1.18,1.62,1.98,0.15,125.4708,9.7339,"2023-12-03 08:34:11.430900+08:00","Mati"
"2023-12-03 08:34:13+08:00",2.0,333.79,0.79,4.84,67.95,3.4,5.42,9.81,2.91,120.9608,14.7369,"2023-12-03 08:34:14.089506+08:00","Meycauayan"
"2023-12-03 08:34:16+08:00",2.0,303.75,0.35,1.93,60.8,0.54,3.15,4.27,2.19,120.9031,15.7161,"2023-12-03 08:34:16.441290+08:00","Muñoz"
"2023-12-03 08:34:17+08:00",2.0,195.27,0.03,0.33,62.94,3.28,3.41,4.56,0.17,123.1814,13.6192,"2023-12-03 08:34:18.355156+08:00","Naga"
"2023-12-03 08:34:19+08:00",2.0,333.79,0.79,4.84,67.95,3.4,5.42,9.81,2.91,120.95,14.6667,"2023-12-03 08:34:20.218729+08:00","Navotas"
"2023-12-03 08:34:21+08:00",2.0,230.31,0.11,0.68,67.23,0.78,2.11,3.53,0.61,120.2828,14.8292,"2023-12-03 08:34:22.086840+08:00","Olongapo"
"2023-12-03 08:34:24+08:00",1.0,226.97,0.08,1.8,36.12,0.43,1.98,2.71,0.91,124.6075,11.0064,"2023-12-03 08:34:24.851971+08:00","Ormoc"
"2023-12-03 08:34:27+08:00",1.0,188.59,0.03,0.46,55.08,0.27,0.91,1.06,0.06,123.8044,8.4858,"2023-12-03 08:34:27.683631+08:00","Oroquieta"
"2023-12-03 08:34:28+08:00",1.0,205.28,0.14,1.69,38.98,0.51,0.82,1.06,0.46,123.8333,8.15,"2023-12-03 08:34:28.971232+08:00","Ozamiz City"
"2023-12-03 08:34:30+08:00",1.0,327.11,0.69,5.83,23.96,1.43,5.06,6.48,7.16,123.43700000000001,7.8257,"2023-12-03 08:34:30.663034+08:00","Pagadian"
"2023-12-03 08:34:32+08:00",2.0,277.04,0.25,1.48,60.8,0.47,3.13,4.18,1.43,121.0833,15.55,"2023-12-03 08:34:32.733643+08:00","Palayan City"
"2023-12-03 08:34:35+08:00",1.0,211.95,0.23,1.61,42.2,0.45,0.72,1.01,0.58,125.6842,7.3081,"2023-12-03 08:34:35.377133+08:00","Panabo"
"2023-12-03 08:34:37+08:00",2.0,674.25,3.3,16.97,57.94,16.93,12.25,22.07,7.79,121.0175,14.4816,"2023-12-03 08:34:38.161937+08:00","Paranaque City"
"2023-12-03 08:34:39+08:00",2.0,674.25,3.3,16.97,57.94,16.93,12.25,22.07,7.79,121.065,14.587,"2023-12-03 08:34:39.945800+08:00","Pasig"
"2023-12-03 08:34:41+08:00",1.0,208.62,0.1,1.26,56.51,0.67,2.25,3.03,0.12,118.7333,9.7333,"2023-12-03 08:34:41.873652+08:00","Puerto Princesa City"
"2023-12-03 08:34:43+08:00",2.0,317.1,0.95,5.23,63.66,5.72,4.38,9.97,2.66,121.0333,14.6333,"2023-12-03 08:34:43.916210+08:00","Quezon City"
"2023-12-03 08:34:46+08:00",1.0,347.14,0.05,2.55,36.84,0.3,4.93,5.58,1.44,121.6201,17.1189,"2023-12-03 08:34:46.400972+08:00","Roxas"
"2023-12-03 08:34:48+08:00",1.0,190.26,0.06,0.35,56.51,1.24,2.26,3.46,0.0,123.4242,10.9447,"2023-12-03 08:34:48.342438+08:00","Sagay"
"2023-12-03 08:34:50+08:00",2.0,283.72,0.42,2.53,69.38,1.74,3.85,6.41,1.49,120.5431,14.7678,"2023-12-03 08:34:50.869616+08:00","Samal"
"2023-12-03 08:34:52+08:00",2.0,280.38,0.24,1.37,63.66,0.47,2.97,4.03,1.54,120.8931,15.5448,"2023-12-03 08:34:52.737471+08:00","San Carlos"
"2023-12-03 08:34:54+08:00",2.0,300.41,0.1,0.92,62.94,0.81,6.01,8.29,1.39,120.3166,16.6159,"2023-12-03 08:34:54.975014+08:00","San Fernando"
"2023-12-03 08:34:56+08:00",1.0,343.8,0.31,2.31,35.76,0.3,6.43,7.14,1.68,121.8712,17.8927,"2023-12-03 08:34:56.953449+08:00","San Jose"
"2023-12-03 08:34:58+08:00",1.0,350.48,0.74,4.16,55.08,1.73,6.68,10.65,3.58,121.0453,14.8139,"2023-12-03 08:34:58.954645+08:00","San Jose del Monte"
"2023-12-03 08:35:01+08:00",2.0,317.1,0.18,1.27,68.67,0.35,2.74,3.2,2.47,120.4583,17.7422,"2023-12-03 08:35:01.261366+08:00","San Juan"
"2023-12-03 08:35:02+08:00",2.0,353.81,0.85,4.88,68.67,2.74,4.93,7.53,2.31,120.6197,14.9696,"2023-12-03 08:35:03.053888+08:00","San Pablo"
"2023-12-03 08:35:05+08:00",2.0,587.46,0.36,7.45,13.41,0.87,16.39,18.02,6.78,121.8833,17.2,"2023-12-03 08:35:06.031997+08:00","San Pedro"
"2023-12-03 08:35:07+08:00",2.0,280.38,0.24,1.37,63.66,0.47,2.97,4.03,1.54,120.9378,15.4238,"2023-12-03 08:35:07.811252+08:00","Santa Rosa"
"2023-12-03 08:35:09+08:00",1.0,267.03,0.12,0.73,55.79,0.31,1.6,1.89,1.68,120.4449,17.2939,"2023-12-03 08:35:09.996455+08:00","Santiago"
"2023-12-03 08:35:11+08:00",1.0,353.81,0.1,2.46,40.05,0.32,5.6,6.18,1.41,121.7645,17.3997,"2023-12-03 08:35:11.963846+08:00","Santo Tomas"
"2023-12-03 08:35:13+08:00",1.0,201.94,0.06,0.66,57.94,2.12,3.83,5.28,0.15,122.9667,10.8,"2023-12-03 08:35:13.742638+08:00","Silay City"
"2023-12-03 08:35:16+08:00",2.0,230.31,0.21,1.25,60.8,0.89,2.71,3.52,1.09,122.4042,9.7519,"2023-12-03 08:35:16.464197+08:00","Sipalay"
"2023-12-03 08:35:18+08:00",1.0,198.6,0.11,2.23,57.22,1.18,1.62,1.98,0.15,125.5,9.75,"2023-12-03 08:35:18.328150+08:00","Surigao City"
"2023-12-03 08:35:20+08:00",1.0,205.28,0.04,1.25,51.5,7.51,3.53,4.38,0.52,123.7336,13.3586,"2023-12-03 08:35:20.573583+08:00","Tabaco"
"2023-12-03 08:35:23+08:00",1.0,343.8,0.19,1.95,25.03,0.37,7.09,7.57,3.01,121.4443,17.4189,"2023-12-03 08:35:23.263361+08:00","Tabuk"
"2023-12-03 08:35:25+08:00",1.0,191.93,0.07,0.57,36.48,0.21,1.61,2.24,0.34,125.0,11.25,"2023-12-03 08:35:25.655497+08:00","Tacloban City"
"2023-12-03 08:35:28+08:00",1.0,343.8,0.17,2.34,43.27,0.35,7.24,8.15,3.07,124.6764,6.6925,"2023-12-03 08:35:28.332364+08:00","Tacurong"
"2023-12-03 08:35:30+08:00",2.0,293.73,1.17,7.37,61.51,8.7,4.61,10.13,1.92,120.9337,14.1059,"2023-12-03 08:35:30.446055+08:00","Tagaytay City"
"2023-12-03 08:35:31+08:00",2.0,674.25,3.3,16.97,57.94,16.93,12.25,22.07,7.79,121.0792,14.5243,"2023-12-03 08:35:32.111234+08:00","Taguig"
"2023-12-03 08:35:33+08:00",2.0,195.27,0.02,0.37,61.51,0.26,3.75,6.79,0.07,122.9226,14.1343,"2023-12-03 08:35:33.853037+08:00","Talisay"
"2023-12-03 08:35:36+08:00",2.0,270.37,0.94,6.17,63.66,7.51,3.93,9.95,1.74,121.1498,14.0863,"2023-12-03 08:35:36.717290+08:00","Tanauan"
"2023-12-03 08:35:39+08:00",1.0,195.27,0.02,0.51,43.99,0.09,0.8,1.05,0.29,126.1986,9.0783,"2023-12-03 08:35:39.615080+08:00","Tandag"
"2023-12-03 08:35:42+08:00",1.0,201.94,0.06,0.66,57.94,2.12,3.83,5.28,0.15,122.9306,10.6339,"2023-12-03 08:35:42.260610+08:00","Tangub"
"2023-12-03 08:35:43+08:00",1.0,200.27,0.13,0.99,50.78,0.61,1.93,2.37,0.54,123.1583,9.5153,"2023-12-03 08:35:43.894712+08:00","Tanjay"
"2023-12-03 08:35:46+08:00",2.0,277.04,0.22,1.35,69.38,0.37,2.71,3.88,1.44,120.5986,15.4889,"2023-12-03 08:35:46.434100+08:00","Tarlac City"
"2023-12-03 08:35:48+08:00",2.0,201.94,0.17,1.23,61.51,1.03,2.5,7.46,0.4,121.5911,14.0289,"2023-12-03 08:35:49.207335+08:00","Tayabas"
"2023-12-03 08:35:51+08:00",1.0,206.95,0.2,1.14,51.5,1.12,2.03,3.44,1.3,123.6333,10.3833,"2023-12-03 08:35:51.915351+08:00","Toledo City"
"2023-12-03 08:35:53+08:00",1.0,320.44,0.05,1.52,47.92,0.18,4.7,5.15,1.12,121.7269,17.6131,"2023-12-03 08:35:54.074669+08:00","Tuguegarao"
"2023-12-03 08:35:55+08:00",2.0,340.46,0.59,3.38,66.52,1.37,4.06,5.09,3.29,120.5711,15.9761,"2023-12-03 08:35:55.478928+08:00","Urdaneta"
"2023-12-03 08:35:57+08:00",1.0,206.95,0.15,0.94,45.78,0.32,1.37,1.87,0.64,124.5725,11.1089,"2023-12-03 08:35:57.619501+08:00","Valencia"
"2023-12-03 08:35:59+08:00",2.0,333.79,0.79,4.84,67.95,3.4,5.42,9.81,2.91,120.9667,14.7,"2023-12-03 08:36:00.047973+08:00","Valenzuela"
"2023-12-03 08:36:02+08:00",1.0,195.27,0.05,0.41,57.22,2.35,3.42,4.87,0.03,123.0778,10.9,"2023-12-03 08:36:02.483681+08:00","Victorias"
"2023-12-03 08:36:04+08:00",2.0,300.41,0.1,0.79,72.24,0.23,2.13,2.59,1.3,120.3869,17.5747,"2023-12-03 08:36:05.200690+08:00","Vigan"
"2023-12-03 08:36:07+08:00",1.0,373.84,0.73,10.03,21.99,2.35,4.36,4.99,4.56,122.0696,6.9135,"2023-12-03 08:36:07.282623+08:00","Zamboanga City"
"2023-12-03 09:00:00+08:00",2.0,293.73,0.61,3.6,66.52,5.54,3.09,3.89,2.38,119.9811,16.1561,"2023-12-03 09:00:01.015937+08:00","Alaminos"
"2023-12-03 09:00:03+08:00",1.0,297.07,0.4,1.95,55.79,0.89,4.02,5.52,1.85,120.5833,15.15,"2023-12-03 09:00:04.183958+08:00","Angeles City"
"2023-12-03 09:00:08+08:00",2.0,257.02,0.15,0.86,60.08,0.25,2.0,2.63,0.9,121.19,15.6181,"2023-12-03 09:00:08.612871+08:00","Antipolo"
"2023-12-03 09:00:10+08:00",1.0,195.27,0.03,0.75,56.51,1.8,2.04,2.32,0.27,123.5085,12.2285,"2023-12-03 09:00:11.199799+08:00","Bacolod"
"2023-12-03 09:00:13+08:00",2.0,473.98,2.15,12.34,65.8,8.94,9.5,18.76,4.75,120.929,14.459000000000001,"2023-12-03 09:00:13.444770+08:00","Bacoor"
"2023-12-03 09:00:15+08:00",1.0,216.96,0.19,1.19,58.65,2.15,3.91,5.47,0.49,122.8333,10.5333,"2023-12-03 09:00:15.792547+08:00","Bago City"
"2023-12-03 09:00:17+08:00",1.0,300.41,0.27,1.65,55.08,1.59,4.91,5.71,1.84,120.5931,16.4164,"2023-12-03 09:00:17.634933+08:00","Baguio"
"2023-12-03 09:00:19+08:00",1.0,200.27,0.13,0.99,50.78,0.61,1.93,2.37,0.54,123.1228,9.5911,"2023-12-03 09:00:20.023062+08:00","Bais"
"2023-12-03 09:00:23+08:00",2.0,283.72,0.42,2.53,69.38,1.74,3.85,6.41,1.49,120.5361,14.6761,"2023-12-03 09:00:23.872773+08:00","Balanga"
"2023-12-03 09:00:26+08:00",2.0,273.71,0.12,0.95,77.25,0.27,1.25,1.5,0.78,120.5649,18.0554,"2023-12-03 09:00:26.446528+08:00","Batac City"
"2023-12-03 09:00:27+08:00",1.0,240.33,1.34,6.34,59.37,6.38,3.97,8.42,1.5,121.05,13.75,"2023-12-03 09:00:28.035129+08:00","Batangas City"
"2023-12-03 09:00:30+08:00",1.0,206.95,0.17,1.26,50.78,0.72,2.16,2.5,0.67,122.8011,9.3636,"2023-12-03 09:00:30.798860+08:00","Bayawan"
"2023-12-03 09:00:32+08:00",2.0,198.6,0.03,0.32,64.37,6.86,3.3,4.08,0.13,123.7135,13.4083,"2023-12-03 09:00:34.583433+08:00","Baybay"
"2023-12-03 09:00:36+08:00",1.0,206.95,0.13,2.79,27.18,0.89,2.31,2.81,0.46,125.7675,8.7561,"2023-12-03 09:00:36.903312+08:00","Bayugan"
"2023-12-03 09:00:38+08:00",1.0,213.62,0.2,1.84,41.84,0.54,1.85,2.47,0.56,125.0336,11.0725,"2023-12-03 09:00:42.410633+08:00","Bislig"
"2023-12-03 09:00:44+08:00",2.0,363.83,1.51,9.25,66.52,12.16,5.69,13.21,3.58,121.0807,14.3427,"2023-12-03 09:00:44.815990+08:00","Biñan"
"2023-12-03 09:00:46+08:00",1.0,200.27,0.14,0.64,50.07,0.63,1.7,2.2,0.29,124.0055,11.0517,"2023-12-03 09:00:46.937719+08:00","Bogo"
"2023-12-03 09:00:49+08:00",1.0,183.58,0.02,0.56,49.35,0.31,2.96,4.9,0.03,125.4319,11.6081,"2023-12-03 09:00:49.441751+08:00","Borongan"
"2023-12-03 09:00:51+08:00",1.0,200.27,0.05,0.95,50.07,0.25,0.79,0.97,0.29,125.5436,8.9492,"2023-12-03 09:00:51.984353+08:00","Butuan"
"2023-12-03 09:00:54+08:00",1.0,230.31,0.17,2.16,27.54,0.42,2.62,3.09,0.98,125.5344,9.1236,"2023-12-03 09:00:54.736722+08:00","Cabadbaran"
"2023-12-03 09:00:56+08:00",2.0,280.38,0.24,1.37,63.66,0.47,2.97,4.03,1.54,120.9667,15.4833,"2023-12-03 09:00:56.482060+08:00","Cabanatuan City"
"2023-12-03 09:00:58+08:00",2.0,363.83,1.51,9.25,66.52,12.16,5.69,13.21,3.58,121.1262,14.2726,"2023-12-03 09:00:58.916958+08:00","Cabuyao"
"2023-12-03 09:01:00+08:00",1.0,191.93,0.05,0.32,57.22,1.74,2.88,4.26,0.01,123.2856,10.9506,"2023-12-03 09:01:00.973151+08:00","Cadiz"
"2023-12-03 09:01:03+08:00",1.0,313.76,0.22,3.21,45.42,1.24,5.38,6.79,3.07,124.6472,8.4822,"2023-12-03 09:01:03.353388+08:00","Cagayan de Oro"
"2023-12-03 09:01:06+08:00",2.0,220.3,0.58,4.07,62.94,4.41,3.02,7.45,1.19,120.8133,13.9324,"2023-12-03 09:01:06.886999+08:00","Calaca"
"2023-12-03 09:01:09+08:00",2.0,363.83,1.51,9.25,66.52,12.16,5.69,13.21,3.58,121.1653,14.2117,"2023-12-03 09:01:09.319482+08:00","Calamba"
"2023-12-03 09:01:11+08:00",2.0,193.6,0.29,2.16,67.23,2.44,2.58,6.41,0.17,121.1803,13.4117,"2023-12-03 09:01:11.399808+08:00","Calapan"
"2023-12-03 09:01:13+08:00",1.0,193.6,0.02,0.51,39.7,3.52,2.77,3.54,0.23,124.6,12.0667,"2023-12-03 09:01:13.338561+08:00","Calbayog City"
"2023-12-03 09:01:14+08:00",2.0,333.79,0.79,4.84,67.95,3.4,5.42,9.81,2.91,120.9667,14.65,"2023-12-03 09:01:15.174705+08:00","Caloocan City"
"2023-12-03 09:01:16+08:00",1.0,270.37,0.17,0.94,50.07,0.42,2.5,2.85,1.66,120.4517,17.1947,"2023-12-03 09:01:17.130786+08:00","Candon"
"2023-12-03 09:01:18+08:00",1.0,330.45,1.19,4.03,41.84,1.25,6.21,7.78,3.83,123.1964,10.3864,"2023-12-03 09:01:18.760023+08:00","Canlaon"
"2023-12-03 09:01:21+08:00",1.0,220.3,0.45,2.21,55.79,3.13,2.52,4.01,1.19,123.6402,10.1061,"2023-12-03 09:01:21.273247+08:00","Carcar"
"2023-12-03 09:01:23+08:00",2.0,363.83,1.51,9.25,66.52,12.16,5.69,13.21,3.58,121.0576,14.3132,"2023-12-03 09:01:23.709016+08:00","Carmona"
"2023-12-03 09:01:25+08:00",1.0,191.93,0.05,0.46,42.2,0.47,1.74,2.34,0.35,124.8861,11.7753,"2023-12-03 09:01:25.734399+08:00","Catbalogan"
"2023-12-03 09:01:28+08:00",1.0,410.56,0.91,4.33,24.68,0.75,7.77,9.18,10.39,121.7725,16.9347,"2023-12-03 09:01:28.299773+08:00","Cauayan"
"2023-12-03 09:01:30+08:00",2.0,473.98,2.15,12.34,65.8,8.94,9.5,18.76,4.75,120.9169,14.4825,"2023-12-03 09:01:30.609508+08:00","Cavite City"
"2023-12-03 09:01:32+08:00",1.0,240.33,0.53,2.55,47.21,3.01,2.78,3.96,1.74,123.8907,10.3167,"2023-12-03 09:01:32.661297+08:00","Cebu City"
"2023-12-03 09:01:34+08:00",2.0,317.1,0.95,5.23,63.66,5.72,4.38,9.97,2.66,121.1,14.6333,"2023-12-03 09:01:35.193727+08:00","City of Marikina"
"2023-12-03 09:01:37+08:00",1.0,195.27,0.03,0.75,56.51,1.8,2.04,2.32,0.27,123.5833,12.3333,"2023-12-03 09:01:38.556193+08:00","City of Masbate"
"2023-12-03 09:01:41+08:00",1.0,226.97,0.13,1.84,47.21,1.3,2.97,3.8,1.22,122.65,11.15,"2023-12-03 09:01:47.341895+08:00","City of Passi"
"2023-12-03 09:01:49+08:00",1.0,196.93,0.03,0.57,58.65,2.41,1.73,2.26,0.31,123.9833,12.9833,"2023-12-03 09:01:51.596693+08:00","City of Sorsogon"
"2023-12-03 09:01:53+08:00",1.0,327.11,0.35,1.8,41.84,0.44,6.99,8.12,2.47,124.2464,7.2236,"2023-12-03 09:01:54.160779+08:00","Cotabato"
"2023-12-03 09:01:55+08:00",1.0,290.39,0.1,0.88,54.36,0.14,3.7,3.98,0.57,121.5047,17.7061,"2023-12-03 09:01:56.844778+08:00","Dagupan"
"2023-12-03 09:01:59+08:00",1.0,195.27,0.26,1.5,56.51,2.47,1.65,2.11,0.22,124.0272,10.5208,"2023-12-03 09:01:59.340512+08:00","Danao"
"2023-12-03 09:02:01+08:00",1.0,240.33,0.53,2.55,47.21,3.01,2.78,3.96,1.74,123.9469,10.2706,"2023-12-03 09:02:02.207928+08:00","Dapitan"
"2023-12-03 09:02:04+08:00",2.0,427.25,1.57,11.48,69.38,11.21,8.12,15.99,4.31,120.9367,14.3294,"2023-12-03 09:02:04.935395+08:00","Dasmariñas"
"2023-12-03 09:02:06+08:00",1.0,230.31,0.35,2.91,38.62,0.81,0.98,1.38,0.73,125.6128,7.0731,"2023-12-03 09:02:07.201744+08:00","Davao"
"2023-12-03 09:02:08+08:00",1.0,230.31,0.17,1.52,42.56,0.47,1.34,1.88,1.2,125.3572,6.7497,"2023-12-03 09:02:09.203722+08:00","Digos"
"2023-12-03 09:02:11+08:00",1.0,193.6,0.02,0.66,55.08,0.29,0.95,1.13,0.14,123.3414,8.5894,"2023-12-03 09:02:11.696490+08:00","Dipolog"
"2023-12-03 09:02:13+08:00",1.0,203.61,0.22,1.46,55.08,1.06,2.01,2.4,0.38,123.3081,9.3103,"2023-12-03 09:02:13.767754+08:00","Dumaguete"
"2023-12-03 09:02:15+08:00",1.0,220.3,0.07,1.01,49.35,0.36,1.27,1.69,1.57,124.5225,8.5631,"2023-12-03 09:02:16.005782+08:00","El Salvador"
"2023-12-03 09:02:17+08:00",1.0,190.26,0.06,0.35,56.51,1.24,2.26,3.46,0.0,123.4992,10.8403,"2023-12-03 09:02:17.524604+08:00","Escalante"
"2023-12-03 09:02:20+08:00",2.0,317.1,0.41,2.21,62.94,0.7,4.36,6.24,2.01,120.9464,15.3072,"2023-12-03 09:02:20.609696+08:00","Gapan"
"2023-12-03 09:02:22+08:00",1.0,243.66,0.07,1.2,44.35,0.25,1.92,2.4,1.38,125.1717,6.1128,"2023-12-03 09:02:23.498666+08:00","General Santos"
"2023-12-03 09:02:25+08:00",2.0,427.25,1.57,11.48,69.38,11.21,8.12,15.99,4.31,120.8817,14.3869,"2023-12-03 09:02:25.731759+08:00","General Trias"
"2023-12-03 09:02:27+08:00",2.0,190.26,0.03,0.43,60.8,0.06,0.5,0.58,0.18,125.1167,8.8333,"2023-12-03 09:02:27.673646+08:00","Gingoog City"
"2023-12-03 09:02:30+08:00",1.0,303.75,0.44,3.13,56.51,1.55,5.59,7.43,3.67,122.8706,10.0989,"2023-12-03 09:02:30.582216+08:00","Himamaylan"
"2023-12-03 09:02:33+08:00",2.0,534.06,1.09,4.5,22.35,0.58,13.6,14.69,4.75,121.8892,17.1485,"2023-12-03 09:02:33.380348+08:00","Ilagan"
"2023-12-03 09:02:35+08:00",1.0,220.3,0.11,2.16,47.92,2.09,1.46,1.99,1.98,124.4,8.25,"2023-12-03 09:02:35.705899+08:00","Iligan City"
"2023-12-03 09:02:38+08:00",1.0,240.33,0.13,1.74,55.08,1.09,2.93,3.89,1.16,122.55,10.75,"2023-12-03 09:02:38.939843+08:00","Iloilo City"
"2023-12-03 09:02:41+08:00",2.0,473.98,2.15,12.34,65.8,8.94,9.5,18.76,4.75,120.9367,14.4297,"2023-12-03 09:02:46.159806+08:00","Imus"
"2023-12-03 09:02:48+08:00",1.0,216.96,0.16,1.09,50.07,7.09,4.39,5.28,0.83,123.4167,13.4167,"2023-12-03 09:02:48.219217+08:00","Iriga City"
"2023-12-03 09:02:49+08:00",1.0,257.02,0.42,2.19,58.65,2.06,4.72,6.4,1.65,122.9888,10.2048,"2023-12-03 09:02:50.099163+08:00","Isabela"
"2023-12-03 09:02:51+08:00",1.0,250.34,0.25,1.69,52.21,0.51,2.88,3.67,2.0,122.8122,9.9889,"2023-12-03 09:02:51.791668+08:00","Kabankalan"
"2023-12-03 09:02:53+08:00",2.0,514.03,1.27,11.82,41.84,2.65,12.49,15.36,18.24,125.0894,7.0083,"2023-12-03 09:02:53.526495+08:00","Kidapawan"
"2023-12-03 09:02:55+08:00",2.0,647.54,1.13,12.68,39.34,2.68,19.98,23.51,23.05,124.8469,6.5031,"2023-12-03 09:02:55.748508+08:00","Koronadal"
"2023-12-03 09:02:57+08:00",1.0,216.96,0.19,1.19,58.65,2.15,3.91,5.47,0.49,122.9208,10.4233,"2023-12-03 09:02:57.836245+08:00","La Carlota"
"2023-12-03 09:02:59+08:00",1.0,196.93,0.1,1.97,36.12,0.66,0.76,0.88,0.55,125.7022,6.0872,"2023-12-03 09:02:59.498910+08:00","Lamitan"
"2023-12-03 09:03:02+08:00",2.0,273.71,0.12,0.95,77.25,0.27,1.25,1.5,0.78,120.5936,18.1989,"2023-12-03 09:03:02.528058+08:00","Laoag"
"2023-12-03 09:03:04+08:00",1.0,240.33,0.53,2.55,47.21,3.01,2.78,3.96,1.74,123.9494,10.3103,"2023-12-03 09:03:05.232929+08:00","Lapu-Lapu City"
"2023-12-03 09:03:07+08:00",2.0,473.98,2.15,12.34,65.8,8.94,9.5,18.76,4.75,120.9828,14.4506,"2023-12-03 09:03:07.737844+08:00","Las Piñas"
"2023-12-03 09:03:09+08:00",1.0,213.62,0.1,1.59,58.65,7.63,3.16,3.76,0.46,123.7333,13.1333,"2023-12-03 09:03:09.526894+08:00","Legazpi City"
"2023-12-03 09:03:11+08:00",1.0,206.95,0.08,0.64,59.37,8.11,3.59,4.14,0.52,123.5325,13.2403,"2023-12-03 09:03:11.842333+08:00","Ligao"
"2023-12-03 09:03:14+08:00",2.0,240.33,0.42,2.83,66.52,1.82,3.2,8.51,1.66,121.1667,13.95,"2023-12-03 09:03:14.604158+08:00","Lipa City"
"2023-12-03 09:03:16+08:00",1.0,240.33,0.09,1.74,49.35,0.86,3.46,4.6,1.0,122.5967,10.8794,"2023-12-03 09:03:16.555917+08:00","Lucena"
"2023-12-03 09:03:18+08:00",1.0,240.33,0.09,1.74,49.35,0.86,3.46,4.6,1.0,122.4347,10.8925,"2023-12-03 09:03:18.907628+08:00","Maasin"
"2023-12-03 09:03:21+08:00",2.0,273.71,0.18,1.11,66.52,0.32,2.97,4.2,1.43,120.5736,15.2216,"2023-12-03 09:03:21.635611+08:00","Mabalacat City"
"2023-12-03 09:03:24+08:00",2.0,674.25,3.3,16.97,57.94,16.93,12.25,22.07,7.79,121.0327,14.5503,"2023-12-03 09:03:24.343981+08:00","Makati City"
"2023-12-03 09:03:25+08:00",2.0,220.3,0.08,0.63,78.68,0.47,0.91,1.63,0.42,119.9379,15.6361,"2023-12-03 09:03:26.060200+08:00","Malabon"
"2023-12-03 09:03:28+08:00",1.0,203.61,0.07,1.78,38.62,0.25,1.12,1.56,1.06,125.0833,8.15,"2023-12-03 09:03:28.300506+08:00","Malaybalay"
"2023-12-03 09:03:30+08:00",2.0,343.8,0.55,3.47,67.23,1.49,5.86,8.89,2.69,120.8117,14.8419,"2023-12-03 09:03:30.907782+08:00","Malolos"
"2023-12-03 09:03:32+08:00",2.0,674.25,3.3,16.97,57.94,16.93,12.25,22.07,7.79,121.0409,14.5832,"2023-12-03 09:03:32.328322+08:00","Mandaluyong City"
"2023-12-03 09:03:33+08:00",1.0,240.33,0.53,2.55,47.21,3.01,2.78,3.96,1.74,123.9333,10.3333,"2023-12-03 09:03:34.020347+08:00","Mandaue City"
"2023-12-03 09:03:35+08:00",2.0,333.79,0.79,4.84,67.95,3.4,5.42,9.81,2.91,120.9822,14.6042,"2023-12-03 09:03:35.581880+08:00","Manila"
"2023-12-03 09:03:37+08:00",1.0,320.44,0.27,4.11,31.83,1.18,6.31,7.36,4.37,124.2928,7.9986,"2023-12-03 09:03:37.359393+08:00","Marawi"
"2023-12-03 09:03:38+08:00",1.0,198.6,0.11,2.23,57.22,1.18,1.62,1.98,0.15,125.4708,9.7339,"2023-12-03 09:03:38.648644+08:00","Mati"
"2023-12-03 09:03:40+08:00",2.0,333.79,0.79,4.84,67.95,3.4,5.42,9.81,2.91,120.9608,14.7369,"2023-12-03 09:03:40.918570+08:00","Meycauayan"
"2023-12-03 09:03:43+08:00",2.0,303.75,0.35,1.93,60.8,0.54,3.15,4.27,2.19,120.9031,15.7161,"2023-12-03 09:03:43.306328+08:00","Muñoz"
"2023-12-03 09:03:45+08:00",2.0,195.27,0.03,0.33,62.94,3.28,3.41,4.56,0.17,123.1814,13.6192,"2023-12-03 09:03:45.644458+08:00","Naga"
"2023-12-03 09:03:47+08:00",2.0,333.79,0.79,4.84,67.95,3.4,5.42,9.81,2.91,120.95,14.6667,"2023-12-03 09:03:47.876915+08:00","Navotas"
"2023-12-03 09:03:49+08:00",2.0,230.31,0.11,0.68,67.23,0.78,2.11,3.53,0.61,120.2828,14.8292,"2023-12-03 09:03:49.638748+08:00","Olongapo"
"2023-12-03 09:03:51+08:00",1.0,226.97,0.08,1.8,36.12,0.43,1.98,2.71,0.91,124.6075,11.0064,"2023-12-03 09:03:51.250696+08:00","Ormoc"
"2023-12-03 09:03:53+08:00",1.0,188.59,0.03,0.46,55.08,0.27,0.91,1.06,0.06,123.8044,8.4858,"2023-12-03 09:03:53.990137+08:00","Oroquieta"
"2023-12-03 09:03:55+08:00",1.0,205.28,0.14,1.69,38.98,0.51,0.82,1.06,0.46,123.8333,8.15,"2023-12-03 09:03:55.840862+08:00","Ozamiz City"
"2023-12-03 09:03:57+08:00",1.0,327.11,0.69,5.83,23.96,1.43,5.06,6.48,7.16,123.43700000000001,7.8257,"2023-12-03 09:03:57.246454+08:00","Pagadian"
"2023-12-03 09:03:58+08:00",2.0,277.04,0.25,1.48,60.8,0.47,3.13,4.18,1.43,121.0833,15.55,"2023-12-03 09:03:58.908012+08:00","Palayan City"
"2023-12-03 09:04:00+08:00",1.0,211.95,0.23,1.61,42.2,0.45,0.72,1.01,0.58,125.6842,7.3081,"2023-12-03 09:04:00.635362+08:00","Panabo"
"2023-12-03 09:04:02+08:00",2.0,674.25,3.3,16.97,57.94,16.93,12.25,22.07,7.79,121.0175,14.4816,"2023-12-03 09:04:03.014602+08:00","Paranaque City"
"2023-12-03 09:04:05+08:00",2.0,674.25,3.3,16.97,57.94,16.93,12.25,22.07,7.79,121.065,14.587,"2023-12-03 09:04:05.448810+08:00","Pasig"
"2023-12-03 09:04:07+08:00",1.0,208.62,0.1,1.26,56.51,0.67,2.25,3.03,0.12,118.7333,9.7333,"2023-12-03 09:04:07.470077+08:00","Puerto Princesa City"
"2023-12-03 09:04:09+08:00",2.0,317.1,0.95,5.23,63.66,5.72,4.38,9.97,2.66,121.0333,14.6333,"2023-12-03 09:04:09.996739+08:00","Quezon City"
"2023-12-03 09:04:12+08:00",1.0,347.14,0.05,2.55,36.84,0.3,4.93,5.58,1.44,121.6201,17.1189,"2023-12-03 09:04:12.504052+08:00","Roxas"
"2023-12-03 09:04:15+08:00",1.0,190.26,0.06,0.35,56.51,1.24,2.26,3.46,0.0,123.4242,10.9447,"2023-12-03 09:04:15.316144+08:00","Sagay"
"2023-12-03 09:04:17+08:00",2.0,283.72,0.42,2.53,69.38,1.74,3.85,6.41,1.49,120.5431,14.7678,"2023-12-03 09:04:17.323377+08:00","Samal"
"2023-12-03 09:04:19+08:00",2.0,280.38,0.24,1.37,63.66,0.47,2.97,4.03,1.54,120.8931,15.5448,"2023-12-03 09:04:19.857411+08:00","San Carlos"
"2023-12-03 09:04:21+08:00",2.0,300.41,0.1,0.92,62.94,0.81,6.01,8.29,1.39,120.3166,16.6159,"2023-12-03 09:04:22.145061+08:00","San Fernando"
"2023-12-03 09:04:23+08:00",1.0,343.8,0.31,2.31,35.76,0.3,6.43,7.14,1.68,121.8712,17.8927,"2023-12-03 09:04:23.997302+08:00","San Jose"
"2023-12-03 09:04:26+08:00",1.0,350.48,0.74,4.16,55.08,1.73,6.68,10.65,3.58,121.0453,14.8139,"2023-12-03 09:04:27.084081+08:00","San Jose del Monte"
"2023-12-03 09:04:29+08:00",2.0,317.1,0.18,1.27,68.67,0.35,2.74,3.2,2.47,120.4583,17.7422,"2023-12-03 09:04:29.544915+08:00","San Juan"
"2023-12-03 09:04:31+08:00",2.0,353.81,0.85,4.88,68.67,2.74,4.93,7.53,2.31,120.6197,14.9696,"2023-12-03 09:04:31.797356+08:00","San Pablo"
"2023-12-03 09:04:33+08:00",2.0,587.46,0.36,7.45,13.41,0.87,16.39,18.02,6.78,121.8833,17.2,"2023-12-03 09:04:34.041913+08:00","San Pedro"
"2023-12-03 09:04:35+08:00",2.0,280.38,0.24,1.37,63.66,0.47,2.97,4.03,1.54,120.9378,15.4238,"2023-12-03 09:04:36.056000+08:00","Santa Rosa"
"2023-12-03 09:04:37+08:00",1.0,267.03,0.12,0.73,55.79,0.31,1.6,1.89,1.68,120.4449,17.2939,"2023-12-03 09:04:38.193940+08:00","Santiago"
"2023-12-03 09:04:39+08:00",1.0,353.81,0.1,2.46,40.05,0.32,5.6,6.18,1.41,121.7645,17.3997,"2023-12-03 09:04:39.733721+08:00","Santo Tomas"
"2023-12-03 09:04:40+08:00",1.0,201.94,0.06,0.66,57.94,2.12,3.83,5.28,0.15,122.9667,10.8,"2023-12-03 09:04:41.062989+08:00","Silay City"
"2023-12-03 09:04:42+08:00",2.0,230.31,0.21,1.25,60.8,0.89,2.71,3.52,1.09,122.4042,9.7519,"2023-12-03 09:04:42.500642+08:00","Sipalay"
"2023-12-03 09:04:44+08:00",1.0,198.6,0.11,2.23,57.22,1.18,1.62,1.98,0.15,125.5,9.75,"2023-12-03 09:04:45.155845+08:00","Surigao City"
"2023-12-03 09:04:47+08:00",1.0,205.28,0.04,1.25,51.5,7.51,3.53,4.38,0.52,123.7336,13.3586,"2023-12-03 09:04:47.603488+08:00","Tabaco"
"2023-12-03 09:04:49+08:00",1.0,343.8,0.19,1.95,25.03,0.37,7.09,7.57,3.01,121.4443,17.4189,"2023-12-03 09:04:49.604625+08:00","Tabuk"
"2023-12-03 09:04:51+08:00",1.0,191.93,0.07,0.57,36.48,0.21,1.61,2.24,0.34,125.0,11.25,"2023-12-03 09:04:52.106100+08:00","Tacloban City"
"2023-12-03 09:04:54+08:00",1.0,343.8,0.17,2.34,43.27,0.35,7.24,8.15,3.07,124.6764,6.6925,"2023-12-03 09:04:54.645664+08:00","Tacurong"
"2023-12-03 09:04:56+08:00",2.0,293.73,1.17,7.37,61.51,8.7,4.61,10.13,1.92,120.9337,14.1059,"2023-12-03 09:04:56.592709+08:00","Tagaytay City"
"2023-12-03 09:04:57+08:00",2.0,674.25,3.3,16.97,57.94,16.93,12.25,22.07,7.79,121.0792,14.5243,"2023-12-03 09:04:58.167381+08:00","Taguig"
"2023-12-03 09:04:59+08:00",2.0,195.27,0.02,0.37,61.51,0.26,3.75,6.79,0.07,122.9226,14.1343,"2023-12-03 09:04:59.686065+08:00","Talisay"
"2023-12-03 09:05:01+08:00",2.0,270.37,0.94,6.17,63.66,7.51,3.93,9.95,1.74,121.1498,14.0863,"2023-12-03 09:05:01.588896+08:00","Tanauan"
"2023-12-03 09:05:03+08:00",1.0,195.27,0.02,0.51,43.99,0.09,0.8,1.05,0.29,126.1986,9.0783,"2023-12-03 09:05:04.178739+08:00","Tandag"
"2023-12-03 09:05:06+08:00",1.0,201.94,0.06,0.66,57.94,2.12,3.83,5.28,0.15,122.9306,10.6339,"2023-12-03 09:05:06.604492+08:00","Tangub"
"2023-12-03 09:05:09+08:00",1.0,200.27,0.13,0.99,50.78,0.61,1.93,2.37,0.54,123.1583,9.5153,"2023-12-03 09:05:09.369490+08:00","Tanjay"
"2023-12-03 09:05:10+08:00",2.0,277.04,0.22,1.35,69.38,0.37,2.71,3.88,1.44,120.5986,15.4889,"2023-12-03 09:05:11.084622+08:00","Tarlac City"
"2023-12-03 09:05:12+08:00",2.0,201.94,0.17,1.23,61.51,1.03,2.5,7.46,0.4,121.5911,14.0289,"2023-12-03 09:05:13.035940+08:00","Tayabas"
"2023-12-03 09:05:14+08:00",1.0,206.95,0.2,1.14,51.5,1.12,2.03,3.44,1.3,123.6333,10.3833,"2023-12-03 09:05:14.576344+08:00","Toledo City"
"2023-12-03 09:05:16+08:00",1.0,320.44,0.05,1.52,47.92,0.18,4.7,5.15,1.12,121.7269,17.6131,"2023-12-03 09:05:16.921734+08:00","Tuguegarao"
"2023-12-03 09:05:19+08:00",2.0,340.46,0.59,3.38,66.52,1.37,4.06,5.09,3.29,120.5711,15.9761,"2023-12-03 09:05:19.390600+08:00","Urdaneta"
"2023-12-03 09:05:21+08:00",1.0,206.95,0.15,0.94,45.78,0.32,1.37,1.87,0.64,124.5725,11.1089,"2023-12-03 09:05:21.938797+08:00","Valencia"
"2023-12-03 09:05:23+08:00",2.0,333.79,0.79,4.84,67.95,3.4,5.42,9.81,2.91,120.9667,14.7,"2023-12-03 09:05:23.872011+08:00","Valenzuela"
"2023-12-03 09:05:26+08:00",1.0,195.27,0.05,0.41,57.22,2.35,3.42,4.87,0.03,123.0778,10.9,"2023-12-03 09:05:26.374647+08:00","Victorias"
"2023-12-03 09:05:28+08:00",2.0,300.41,0.1,0.79,72.24,0.23,2.13,2.59,1.3,120.3869,17.5747,"2023-12-03 09:05:28.777959+08:00","Vigan"
"2023-12-03 09:05:30+08:00",1.0,373.84,0.73,10.03,21.99,2.35,4.36,4.99,4.56,122.0696,6.9135,"2023-12-03 09:05:30.635405+08:00","Zamboanga City"
"2023-12-03 10:51:06+08:00",2.0,283.72,0.28,1.86,89.41,4.83,6.48,7.51,2.09,119.9811,16.1561,"2023-12-03 10:51:06.902163+08:00","Alaminos"
"2023-12-03 10:51:09+08:00",2.0,303.75,0.31,1.71,80.82,1.61,7.62,9.73,2.5,120.5833,15.15,"2023-12-03 10:51:09.260487+08:00","Angeles City"
"2023-12-03 10:51:11+08:00",2.0,247.0,0.08,0.43,65.8,0.16,2.14,2.68,0.6,121.19,15.6181,"2023-12-03 10:51:11.981976+08:00","Antipolo"
"2023-12-03 10:51:13+08:00",1.0,195.27,0.05,0.41,57.22,1.86,2.24,2.59,0.22,123.5085,12.2285,"2023-12-03 10:51:13.466417+08:00","Bacolod"
"2023-12-03 10:51:15+08:00",3.0,413.9,0.61,5.66,111.58,9.06,11.01,19.67,4.37,120.929,14.459000000000001,"2023-12-03 10:51:15.476112+08:00","Bacoor"
"2023-12-03 10:51:17+08:00",2.0,211.95,0.14,0.84,60.08,1.85,3.21,4.69,0.55,122.8333,10.5333,"2023-12-03 10:51:18.143688+08:00","Bago City"
"2023-12-03 10:51:20+08:00",2.0,307.08,0.14,0.96,67.95,1.42,8.62,9.62,1.96,120.5931,16.4164,"2023-12-03 10:51:20.509527+08:00","Baguio"
"2023-12-03 10:51:22+08:00",2.0,198.6,0.08,0.5,60.8,0.73,1.96,2.47,0.54,123.1228,9.5911,"2023-12-03 10:51:22.393571+08:00","Bais"
"2023-12-03 10:51:25+08:00",2.0,300.41,0.23,1.39,87.98,1.62,7.71,11.04,2.0,120.5361,14.6761,"2023-12-03 10:51:25.452416+08:00","Balanga"
"2023-12-03 10:51:26+08:00",2.0,260.35,0.06,0.43,78.68,0.21,1.58,1.81,0.61,120.5649,18.0554,"2023-12-03 10:51:27.198404+08:00","Batac City"
"2023-12-03 10:51:28+08:00",2.0,226.97,0.52,3.56,85.83,5.78,4.67,9.1,1.2,121.05,13.75,"2023-12-03 10:51:28.759529+08:00","Batangas City"
"2023-12-03 10:51:30+08:00",2.0,200.27,0.08,0.61,60.8,0.66,2.04,2.4,0.58,122.8011,9.3636,"2023-12-03 10:51:30.779090+08:00","Bayawan"
"2023-12-03 10:51:33+08:00",2.0,196.93,0.02,0.19,62.94,6.74,3.35,4.21,0.1,123.7135,13.4083,"2023-12-03 10:51:33.396121+08:00","Baybay"
"2023-12-03 10:51:35+08:00",1.0,196.93,0.03,1.34,33.98,0.48,1.22,1.53,0.51,125.7675,8.7561,"2023-12-03 10:51:35.905933+08:00","Bayugan"
"2023-12-03 10:51:38+08:00",1.0,198.6,0.05,0.87,49.35,0.33,2.14,2.9,0.33,125.0336,11.0725,"2023-12-03 10:51:38.255423+08:00","Bislig"
"2023-12-03 10:51:39+08:00",2.0,297.07,0.74,5.1,87.98,10.49,5.03,11.65,2.57,121.0807,14.3427,"2023-12-03 10:51:39.931352+08:00","Biñan"
"2023-12-03 10:51:41+08:00",1.0,200.27,0.07,0.41,54.36,0.41,1.63,2.15,0.34,124.0055,11.0517,"2023-12-03 10:51:41.760257+08:00","Bogo"
"2023-12-03 10:51:43+08:00",1.0,185.25,0.03,0.29,53.64,0.25,2.54,4.51,0.02,125.4319,11.6081,"2023-12-03 10:51:43.609161+08:00","Borongan"
"2023-12-03 10:51:45+08:00",1.0,196.93,0.07,0.64,52.21,0.24,0.7,0.85,0.29,125.5436,8.9492,"2023-12-03 10:51:46.100830+08:00","Butuan"
"2023-12-03 10:51:48+08:00",1.0,208.62,0.05,0.47,55.08,0.24,0.99,1.17,0.29,125.5344,9.1236,"2023-12-03 10:51:48.387734+08:00","Cabadbaran"
"2023-12-03 10:51:50+08:00",2.0,257.02,0.12,0.66,73.67,0.35,3.06,3.98,1.03,120.9667,15.4833,"2023-12-03 10:51:50.707976+08:00","Cabanatuan City"
"2023-12-03 10:51:52+08:00",2.0,297.07,0.74,5.1,87.98,10.49,5.03,11.65,2.57,121.1262,14.2726,"2023-12-03 10:51:52.657242+08:00","Cabuyao"
"2023-12-03 10:51:54+08:00",1.0,190.26,0.04,0.21,57.94,1.36,2.36,3.63,0.03,123.2856,10.9506,"2023-12-03 10:51:54.323656+08:00","Cadiz"
"2023-12-03 10:51:55+08:00",1.0,273.71,0.09,2.21,57.94,0.82,3.06,4.18,2.01,124.6472,8.4822,"2023-12-03 10:51:56.085212+08:00","Cagayan de Oro"
"2023-12-03 10:51:58+08:00",2.0,216.96,0.26,2.96,76.53,4.47,3.13,8.1,1.08,120.8133,13.9324,"2023-12-03 10:51:58.347548+08:00","Calaca"
"2023-12-03 10:52:00+08:00",2.0,297.07,0.74,5.1,87.98,10.49,5.03,11.65,2.57,121.1653,14.2117,"2023-12-03 10:52:00.375794+08:00","Calamba"
"2023-12-03 10:52:02+08:00",2.0,196.93,0.24,1.89,82.97,3.52,3.49,7.23,0.18,121.1803,13.4117,"2023-12-03 10:52:02.265553+08:00","Calapan"
"2023-12-03 10:52:03+08:00",1.0,186.92,0.04,0.31,41.13,3.19,2.98,3.71,0.23,124.6,12.0667,"2023-12-03 10:52:03.904590+08:00","Calbayog City"
"2023-12-03 10:52:05+08:00",2.0,280.38,0.34,2.51,82.97,3.07,5.71,9.56,1.93,120.9667,14.65,"2023-12-03 10:52:05.413832+08:00","Caloocan City"
"2023-12-03 10:52:07+08:00",2.0,267.03,0.07,0.41,65.09,0.45,2.93,3.21,1.28,120.4517,17.1947,"2023-12-03 10:52:08.165007+08:00","Candon"
"2023-12-03 10:52:10+08:00",1.0,247.0,0.27,1.32,57.94,0.69,3.72,4.59,2.15,123.1964,10.3864,"2023-12-03 10:52:10.988315+08:00","Canlaon"
"2023-12-03 10:52:12+08:00",2.0,210.29,0.22,1.16,67.23,2.59,2.48,3.52,1.0,123.6402,10.1061,"2023-12-03 10:52:12.319862+08:00","Carcar"
"2023-12-03 10:52:14+08:00",2.0,297.07,0.74,5.1,87.98,10.49,5.03,11.65,2.57,121.0576,14.3132,"2023-12-03 10:52:15.001653+08:00","Carmona"
"2023-12-03 10:52:17+08:00",1.0,190.26,0.04,0.32,45.42,0.32,2.21,3.01,0.34,124.8861,11.7753,"2023-12-03 10:52:17.556414+08:00","Catbalogan"
"2023-12-03 10:52:19+08:00",1.0,397.21,0.37,2.01,48.64,0.51,7.94,8.96,5.13,121.7725,16.9347,"2023-12-03 10:52:19.652523+08:00","Cauayan"
"2023-12-03 10:52:22+08:00",3.0,413.9,0.61,5.66,111.58,9.06,11.01,19.67,4.37,120.9169,14.4825,"2023-12-03 10:52:22.551253+08:00","Cavite City"
"2023-12-03 10:52:24+08:00",2.0,216.96,0.26,1.35,60.8,2.5,2.11,2.84,1.25,123.8907,10.3167,"2023-12-03 10:52:24.366517+08:00","Cebu City"
"2023-12-03 10:52:26+08:00",2.0,270.37,0.48,2.51,74.39,3.67,5.15,9.49,1.5,121.1,14.6333,"2023-12-03 10:52:26.542826+08:00","City of Marikina"
"2023-12-03 10:52:28+08:00",1.0,195.27,0.05,0.41,57.22,1.86,2.24,2.59,0.22,123.5833,12.3333,"2023-12-03 10:52:29.053464+08:00","City of Masbate"
"2023-12-03 10:52:30+08:00",1.0,213.62,0.18,0.85,50.07,1.83,3.61,4.44,1.05,122.65,11.15,"2023-12-03 10:52:30.684721+08:00","City of Passi"
"2023-12-03 10:52:32+08:00",1.0,195.27,0.04,0.32,56.51,2.12,1.73,2.38,0.27,123.9833,12.9833,"2023-12-03 10:52:32.808430+08:00","City of Sorsogon"
"2023-12-03 10:52:33+08:00",1.0,267.03,0.07,1.03,50.07,0.35,4.15,4.97,2.03,124.2464,7.2236,"2023-12-03 10:52:34.244924+08:00","Cotabato"
"2023-12-03 10:52:36+08:00",1.0,273.71,0.07,0.52,56.51,0.13,2.82,3.06,0.59,121.5047,17.7061,"2023-12-03 10:52:36.607770+08:00","Dagupan"
"2023-12-03 10:52:38+08:00",2.0,200.27,0.12,1.5,66.52,2.95,2.47,3.01,0.2,124.0272,10.5208,"2023-12-03 10:52:38.247239+08:00","Danao"
"2023-12-03 10:52:39+08:00",2.0,216.96,0.26,1.35,60.8,2.5,2.11,2.84,1.25,123.9469,10.2706,"2023-12-03 10:52:40.165953+08:00","Dapitan"
"2023-12-03 10:52:42+08:00",3.0,403.88,0.52,5.66,110.15,10.97,11.23,19.2,4.02,120.9367,14.3294,"2023-12-03 10:52:42.352864+08:00","Dasmariñas"
"2023-12-03 10:52:44+08:00",1.0,230.31,0.26,2.51,46.49,0.87,1.0,1.37,0.78,125.6128,7.0731,"2023-12-03 10:52:44.303829+08:00","Davao"
"2023-12-03 10:52:46+08:00",1.0,205.28,0.04,0.71,50.78,0.28,0.5,0.74,0.71,125.3572,6.7497,"2023-12-03 10:52:46.648684+08:00","Digos"
"2023-12-03 10:52:48+08:00",1.0,191.93,0.02,0.55,55.08,0.28,0.98,1.14,0.13,123.3414,8.5894,"2023-12-03 10:52:48.833653+08:00","Dipolog"
"2023-12-03 10:52:49+08:00",2.0,196.93,0.1,0.68,65.09,0.94,2.25,2.74,0.32,123.3081,9.3103,"2023-12-03 10:52:50.266833+08:00","Dumaguete"
"2023-12-03 10:52:51+08:00",1.0,216.96,0.08,0.95,55.79,0.38,1.1,1.54,2.09,124.5225,8.5631,"2023-12-03 10:52:52.144246+08:00","El Salvador"
"2023-12-03 10:52:54+08:00",1.0,191.93,0.05,0.27,58.65,1.01,2.26,3.4,0.02,123.4992,10.8403,"2023-12-03 10:52:54.728929+08:00","Escalante"
"2023-12-03 10:52:56+08:00",2.0,280.38,0.17,0.99,79.39,0.65,4.57,6.18,1.49,120.9464,15.3072,"2023-12-03 10:52:57.201687+08:00","Gapan"
"2023-12-03 10:52:58+08:00",1.0,206.95,0.06,0.68,48.64,0.22,0.5,0.71,0.8,125.1717,6.1128,"2023-12-03 10:52:59.186439+08:00","General Santos"
"2023-12-03 10:53:00+08:00",3.0,403.88,0.52,5.66,110.15,10.97,11.23,19.2,4.02,120.8817,14.3869,"2023-12-03 10:53:00.503323+08:00","General Trias"
"2023-12-03 10:53:02+08:00",2.0,186.92,0.03,0.23,61.51,0.06,0.5,0.58,0.16,125.1167,8.8333,"2023-12-03 10:53:02.451006+08:00","Gingoog City"
"2023-12-03 10:53:04+08:00",2.0,280.38,0.22,1.63,75.1,1.4,6.2,7.8,3.45,122.8706,10.0989,"2023-12-03 10:53:05.119988+08:00","Himamaylan"
"2023-12-03 10:53:06+08:00",2.0,527.38,0.63,3.26,43.27,0.51,14.64,15.69,4.18,121.8892,17.1485,"2023-12-03 10:53:07.150213+08:00","Ilagan"
"2023-12-03 10:53:09+08:00",1.0,205.28,0.07,1.41,54.36,1.55,0.86,1.23,0.82,124.4,8.25,"2023-12-03 10:53:09.243406+08:00","Iligan City"
"2023-12-03 10:53:10+08:00",1.0,230.31,0.17,0.86,56.51,1.55,3.39,4.04,1.06,122.55,10.75,"2023-12-03 10:53:10.924912+08:00","Iloilo City"
"2023-12-03 10:53:13+08:00",3.0,413.9,0.61,5.66,111.58,9.06,11.01,19.67,4.37,120.9367,14.4297,"2023-12-03 10:53:13.636506+08:00","Imus"
"2023-12-03 10:53:15+08:00",1.0,205.28,0.09,0.58,52.93,7.03,3.81,4.62,0.72,123.4167,13.4167,"2023-12-03 10:53:16.112182+08:00","Iriga City"
"2023-12-03 10:53:18+08:00",2.0,247.0,0.21,1.36,66.52,1.74,4.23,5.67,1.79,122.9888,10.2048,"2023-12-03 10:53:18.834871+08:00","Isabela"
"2023-12-03 10:53:20+08:00",2.0,226.97,0.13,0.75,62.23,0.53,2.93,3.61,1.52,122.8122,9.9889,"2023-12-03 10:53:20.474881+08:00","Kabankalan"
"2023-12-03 10:53:22+08:00",2.0,400.54,0.27,7.03,67.23,2.06,7.35,9.4,12.79,125.0894,7.0083,"2023-12-03 10:53:22.749552+08:00","Kidapawan"
"2023-12-03 10:53:24+08:00",2.0,554.09,0.36,6.77,90.12,2.35,15.27,18.05,17.73,124.8469,6.5031,"2023-12-03 10:53:24.852795+08:00","Koronadal"
"2023-12-03 10:53:26+08:00",2.0,211.95,0.14,0.84,60.08,1.85,3.21,4.69,0.55,122.9208,10.4233,"2023-12-03 10:53:26.977382+08:00","La Carlota"
"2023-12-03 10:53:28+08:00",1.0,191.93,0.04,1.16,40.77,0.51,0.8,0.92,0.31,125.7022,6.0872,"2023-12-03 10:53:28.450127+08:00","Lamitan"
"2023-12-03 10:53:30+08:00",2.0,260.35,0.06,0.43,78.68,0.21,1.58,1.81,0.61,120.5936,18.1989,"2023-12-03 10:53:31.170289+08:00","Laoag"
"2023-12-03 10:53:32+08:00",2.0,216.96,0.26,1.35,60.8,2.5,2.11,2.84,1.25,123.9494,10.3103,"2023-12-03 10:53:32.791704+08:00","Lapu-Lapu City"
"2023-12-03 10:53:35+08:00",3.0,413.9,0.61,5.66,111.58,9.06,11.01,19.67,4.37,120.9828,14.4506,"2023-12-03 10:53:35.301832+08:00","Las Piñas"
"2023-12-03 10:53:36+08:00",2.0,206.95,0.09,0.94,60.8,6.2,2.41,3.0,0.37,123.7333,13.1333,"2023-12-03 10:53:37.042264+08:00","Legazpi City"
"2023-12-03 10:53:39+08:00",1.0,203.61,0.06,0.41,59.37,8.11,3.32,3.96,0.46,123.5325,13.2403,"2023-12-03 10:53:39.249371+08:00","Ligao"
"2023-12-03 10:53:41+08:00",2.0,223.64,0.2,1.44,77.25,1.73,2.84,7.92,1.47,121.1667,13.95,"2023-12-03 10:53:41.584039+08:00","Lipa City"
"2023-12-03 10:53:43+08:00",1.0,226.97,0.13,1.1,48.64,1.21,3.27,3.82,1.0,122.5967,10.8794,"2023-12-03 10:53:43.562599+08:00","Lucena"
"2023-12-03 10:53:45+08:00",1.0,226.97,0.13,1.1,48.64,1.21,3.27,3.82,1.0,122.4347,10.8925,"2023-12-03 10:53:45.966451+08:00","Maasin"
"2023-12-03 10:53:47+08:00",2.0,277.04,0.14,0.86,78.68,0.45,5.06,6.49,1.71,120.5736,15.2216,"2023-12-03 10:53:47.252155+08:00","Mabalacat City"
"2023-12-03 10:53:48+08:00",2.0,393.87,0.95,6.17,86.55,9.42,7.07,13.92,4.31,121.0327,14.5503,"2023-12-03 10:53:48.538476+08:00","Makati City"
"2023-12-03 10:53:50+08:00",2.0,210.29,0.07,0.5,85.83,0.61,1.34,2.08,0.39,119.9379,15.6361,"2023-12-03 10:53:50.806390+08:00","Malabon"
"2023-12-03 10:53:52+08:00",1.0,178.58,0.02,0.77,42.2,0.15,0.5,0.68,0.71,125.0833,8.15,"2023-12-03 10:53:53.106192+08:00","Malaybalay"
"2023-12-03 10:53:54+08:00",2.0,267.03,0.17,1.19,77.96,1.06,5.31,7.51,1.55,120.8117,14.8419,"2023-12-03 10:53:55.187340+08:00","Malolos"
"2023-12-03 10:53:57+08:00",2.0,393.87,0.95,6.17,86.55,9.42,7.07,13.92,4.31,121.0409,14.5832,"2023-12-03 10:53:57.468373+08:00","Mandaluyong City"
"2023-12-03 10:53:58+08:00",2.0,216.96,0.26,1.35,60.8,2.5,2.11,2.84,1.25,123.9333,10.3333,"2023-12-03 10:53:59.118161+08:00","Mandaue City"
"2023-12-03 10:54:01+08:00",2.0,280.38,0.34,2.51,82.97,3.07,5.71,9.56,1.93,120.9822,14.6042,"2023-12-03 10:54:01.656054+08:00","Manila"
"2023-12-03 10:54:03+08:00",1.0,287.06,0.2,3.17,35.76,1.55,5.06,6.04,4.18,124.2928,7.9986,"2023-12-03 10:54:03.827427+08:00","Marawi"
"2023-12-03 10:54:05+08:00",2.0,198.6,0.12,1.91,60.8,1.33,1.53,1.94,0.18,125.4708,9.7339,"2023-12-03 10:54:05.894450+08:00","Mati"
"2023-12-03 10:54:07+08:00",2.0,280.38,0.34,2.51,82.97,3.07,5.71,9.56,1.93,120.9608,14.7369,"2023-12-03 10:54:07.943665+08:00","Meycauayan"
"2023-12-03 10:54:10+08:00",2.0,257.02,0.13,0.66,70.1,0.31,2.48,3.28,1.16,120.9031,15.7161,"2023-12-03 10:54:10.327208+08:00","Muñoz"
"2023-12-03 10:54:11+08:00",2.0,191.93,0.03,0.19,61.51,3.43,3.54,4.83,0.15,123.1814,13.6192,"2023-12-03 10:54:12.177278+08:00","Naga"
"2023-12-03 10:54:13+08:00",2.0,280.38,0.34,2.51,82.97,3.07,5.71,9.56,1.93,120.95,14.6667,"2023-12-03 10:54:13.682001+08:00","Navotas"
"2023-12-03 10:54:15+08:00",2.0,260.35,0.13,0.8,82.97,1.45,5.07,6.82,1.09,120.2828,14.8292,"2023-12-03 10:54:15.564140+08:00","Olongapo"
"2023-12-03 10:54:17+08:00",1.0,213.62,0.08,1.32,37.91,0.4,1.73,2.3,0.79,124.6075,11.0064,"2023-12-03 10:54:17.816448+08:00","Ormoc"
"2023-12-03 10:54:19+08:00",1.0,188.59,0.03,0.3,57.22,0.27,0.96,1.13,0.06,123.8044,8.4858,"2023-12-03 10:54:19.540207+08:00","Oroquieta"
"2023-12-03 10:54:20+08:00",1.0,195.27,0.09,0.5,50.07,0.29,0.57,0.77,0.36,123.8333,8.15,"2023-12-03 10:54:21.160450+08:00","Ozamiz City"
"2023-12-03 10:54:23+08:00",1.0,277.04,0.27,2.21,40.41,0.72,3.24,4.17,3.42,123.43700000000001,7.8257,"2023-12-03 10:54:23.390942+08:00","Pagadian"
"2023-12-03 10:54:24+08:00",2.0,257.02,0.12,0.68,71.53,0.32,3.22,4.1,0.84,121.0833,15.55,"2023-12-03 10:54:24.980504+08:00","Palayan City"
"2023-12-03 10:54:26+08:00",1.0,208.62,0.11,1.37,45.42,0.42,0.7,0.95,0.58,125.6842,7.3081,"2023-12-03 10:54:26.832019+08:00","Panabo"
"2023-12-03 10:54:28+08:00",2.0,393.87,0.95,6.17,86.55,9.42,7.07,13.92,4.31,121.0175,14.4816,"2023-12-03 10:54:28.519368+08:00","Paranaque City"
"2023-12-03 10:54:30+08:00",2.0,393.87,0.95,6.17,86.55,9.42,7.07,13.92,4.31,121.065,14.587,"2023-12-03 10:54:30.826944+08:00","Pasig"
"2023-12-03 10:54:33+08:00",2.0,206.95,0.11,0.92,61.51,0.78,2.99,4.49,0.08,118.7333,9.7333,"2023-12-03 10:54:33.497630+08:00","Puerto Princesa City"
"2023-12-03 10:54:34+08:00",2.0,270.37,0.48,2.51,74.39,3.67,5.15,9.49,1.5,121.0333,14.6333,"2023-12-03 10:54:35.102958+08:00","Quezon City"
"2023-12-03 10:54:37+08:00",1.0,343.8,0.07,2.06,43.63,0.3,4.96,5.56,1.57,121.6201,17.1189,"2023-12-03 10:54:37.655110+08:00","Roxas"
"2023-12-03 10:54:39+08:00",1.0,191.93,0.05,0.27,58.65,1.01,2.26,3.4,0.02,123.4242,10.9447,"2023-12-03 10:54:39.812385+08:00","Sagay"
"2023-12-03 10:54:41+08:00",2.0,300.41,0.23,1.39,87.98,1.62,7.71,11.04,2.0,120.5431,14.7678,"2023-12-03 10:54:41.315244+08:00","Samal"
"2023-12-03 10:54:43+08:00",2.0,257.02,0.12,0.66,73.67,0.35,3.06,3.98,1.03,120.8931,15.5448,"2023-12-03 10:54:43.750122+08:00","San Carlos"
"2023-12-03 10:54:45+08:00",2.0,290.39,0.04,0.36,72.96,0.64,5.62,7.99,1.27,120.3166,16.6159,"2023-12-03 10:54:45.457316+08:00","San Fernando"
"2023-12-03 10:54:47+08:00",1.0,317.1,0.14,2.23,45.78,0.33,5.65,6.24,1.66,121.8712,17.8927,"2023-12-03 10:54:47.912226+08:00","San Jose"
"2023-12-03 10:54:49+08:00",2.0,240.33,0.13,0.84,70.1,0.79,4.79,6.92,0.94,121.0453,14.8139,"2023-12-03 10:54:49.610437+08:00","San Jose del Monte"
"2023-12-03 10:54:51+08:00",2.0,310.42,0.1,0.73,80.82,0.45,3.28,3.71,2.25,120.4583,17.7422,"2023-12-03 10:54:51.492470+08:00","San Juan"
"2023-12-03 10:54:54+08:00",2.0,320.44,0.29,1.93,86.55,1.89,7.53,10.16,2.28,120.6197,14.9696,"2023-12-03 10:54:54.223642+08:00","San Pablo"
"2023-12-03 10:54:56+08:00",2.0,500.68,0.22,4.76,27.54,0.57,12.22,13.39,3.77,121.8833,17.2,"2023-12-03 10:54:56.783135+08:00","San Pedro"
"2023-12-03 10:54:58+08:00",2.0,257.02,0.12,0.66,73.67,0.35,3.06,3.98,1.03,120.9378,15.4238,"2023-12-03 10:54:58.495280+08:00","Santa Rosa"
"2023-12-03 10:54:59+08:00",2.0,257.02,0.05,0.33,66.52,0.31,1.75,2.02,1.28,120.4449,17.2939,"2023-12-03 10:55:00.001260+08:00","Santiago"
"2023-12-03 10:55:02+08:00",1.0,337.12,0.14,1.59,49.35,0.3,5.21,5.79,1.47,121.7645,17.3997,"2023-12-03 10:55:02.771366+08:00","Santo Tomas"
"2023-12-03 10:55:05+08:00",1.0,196.93,0.05,0.36,58.65,1.94,3.23,4.66,0.1,122.9667,10.8,"2023-12-03 10:55:05.925631+08:00","Silay City"
"2023-12-03 10:55:08+08:00",2.0,240.33,0.12,0.88,69.38,1.04,4.54,5.61,1.33,122.4042,9.7519,"2023-12-03 10:55:08.412403+08:00","Sipalay"
"2023-12-03 10:55:09+08:00",2.0,198.6,0.12,1.91,60.8,1.33,1.53,1.94,0.18,125.5,9.75,"2023-12-03 10:55:09.912281+08:00","Surigao City"
"2023-12-03 10:55:11+08:00",1.0,201.94,0.06,0.9,53.64,7.27,3.38,4.24,0.36,123.7336,13.3586,"2023-12-03 10:55:12.110052+08:00","Tabaco"
"2023-12-03 10:55:13+08:00",1.0,310.42,0.06,0.83,37.91,0.2,4.98,5.4,1.2,121.4443,17.4189,"2023-12-03 10:55:14.134094+08:00","Tabuk"
"2023-12-03 10:55:16+08:00",1.0,186.92,0.04,0.33,42.92,0.18,2.18,2.98,0.19,125.0,11.25,"2023-12-03 10:55:16.806071+08:00","Tacloban City"
"2023-12-03 10:55:18+08:00",1.0,293.73,0.07,1.3,47.21,0.26,4.2,4.74,2.57,124.6764,6.6925,"2023-12-03 10:55:18.609495+08:00","Tacurong"
"2023-12-03 10:55:20+08:00",2.0,270.37,0.52,4.2,87.98,9.06,5.55,11.61,1.84,120.9337,14.1059,"2023-12-03 10:55:20.987549+08:00","Tagaytay City"
"2023-12-03 10:55:23+08:00",2.0,393.87,0.95,6.17,86.55,9.42,7.07,13.92,4.31,121.0792,14.5243,"2023-12-03 10:55:23.415084+08:00","Taguig"
"2023-12-03 10:55:25+08:00",2.0,191.93,0.01,0.23,60.8,0.25,4.28,7.47,0.06,122.9226,14.1343,"2023-12-03 10:55:25.502332+08:00","Talisay"
"2023-12-03 10:55:28+08:00",2.0,236.99,0.5,3.68,79.39,7.63,3.64,9.43,1.47,121.1498,14.0863,"2023-12-03 10:55:28.292873+08:00","Tanauan"
"2023-12-03 10:55:30+08:00",1.0,190.26,0.01,0.26,47.92,0.07,0.67,0.88,0.15,126.1986,9.0783,"2023-12-03 10:55:30.519634+08:00","Tandag"
"2023-12-03 10:55:32+08:00",1.0,196.93,0.05,0.36,58.65,1.94,3.23,4.66,0.1,122.9306,10.6339,"2023-12-03 10:55:32.793746+08:00","Tangub"
"2023-12-03 10:55:35+08:00",2.0,198.6,0.08,0.5,60.8,0.73,1.96,2.47,0.54,123.1583,9.5153,"2023-12-03 10:55:35.440418+08:00","Tanjay"
"2023-12-03 10:55:36+08:00",2.0,297.07,0.19,1.13,80.82,0.61,5.71,7.03,2.15,120.5986,15.4889,"2023-12-03 10:55:37.228560+08:00","Tarlac City"
"2023-12-03 10:55:39+08:00",2.0,196.93,0.13,0.93,60.8,1.04,2.22,6.64,0.35,121.5911,14.0289,"2023-12-03 10:55:39.771295+08:00","Tayabas"
"2023-12-03 10:55:40+08:00",2.0,208.62,0.13,0.87,60.08,1.39,2.29,3.65,1.58,123.6333,10.3833,"2023-12-03 10:55:41.169807+08:00","Toledo City"
"2023-12-03 10:55:42+08:00",1.0,303.75,0.12,0.95,50.78,0.17,4.47,4.89,1.12,121.7269,17.6131,"2023-12-03 10:55:43.129533+08:00","Tuguegarao"
"2023-12-03 10:55:44+08:00",2.0,303.75,0.29,1.76,89.41,1.19,6.16,7.32,2.88,120.5711,15.9761,"2023-12-03 10:55:44.553748+08:00","Urdaneta"
"2023-12-03 10:55:46+08:00",1.0,206.95,0.1,0.66,47.92,0.28,1.38,1.84,0.54,124.5725,11.1089,"2023-12-03 10:55:46.370868+08:00","Valencia"
"2023-12-03 10:55:48+08:00",2.0,280.38,0.34,2.51,82.97,3.07,5.71,9.56,1.93,120.9667,14.7,"2023-12-03 10:55:48.413713+08:00","Valenzuela"
"2023-12-03 10:55:49+08:00",1.0,191.93,0.04,0.24,57.22,2.06,2.96,4.4,0.01,123.0778,10.9,"2023-12-03 10:55:49.801717+08:00","Victorias"
"2023-12-03 10:55:51+08:00",2.0,300.41,0.05,0.38,80.11,0.26,2.86,3.68,1.16,120.3869,17.5747,"2023-12-03 10:55:51.597690+08:00","Vigan"
"2023-12-03 10:55:54+08:00",1.0,283.72,0.33,3.98,34.69,1.03,2.57,2.94,1.62,122.0696,6.9135,"2023-12-03 10:55:54.354376+08:00","Zamboanga City"
"2023-12-03 12:00:00+08:00",2.0,277.04,0.17,1.21,94.41,3.55,8.32,9.36,1.74,119.9811,16.1561,"2023-12-03 12:00:00.822482+08:00","Alaminos"
"2023-12-03 12:00:03+08:00",2.0,287.06,0.22,1.34,84.4,1.61,8.02,10.0,2.31,120.5833,15.15,"2023-12-03 12:00:03.504351+08:00","Angeles City"
"2023-12-03 12:00:06+08:00",2.0,247.0,0.06,0.35,67.95,0.14,2.2,2.63,0.53,121.19,15.6181,"2023-12-03 12:00:07.042051+08:00","Antipolo"
"2023-12-03 12:00:08+08:00",1.0,193.6,0.04,0.3,55.79,1.86,2.32,2.74,0.2,123.5085,12.2285,"2023-12-03 12:00:09.175434+08:00","Bacolod"
"2023-12-03 12:00:11+08:00",3.0,360.49,0.39,4.03,107.29,7.21,9.16,16.31,3.39,120.929,14.459000000000001,"2023-12-03 12:00:11.470454+08:00","Bacoor"
"2023-12-03 12:00:14+08:00",2.0,205.28,0.11,0.67,60.08,1.64,2.76,4.11,0.43,122.8333,10.5333,"2023-12-03 12:00:14.274158+08:00","Bago City"
"2023-12-03 12:00:16+08:00",2.0,303.75,0.08,0.7,72.96,1.18,9.85,10.98,1.76,120.5931,16.4164,"2023-12-03 12:00:16.482894+08:00","Baguio"
"2023-12-03 12:00:20+08:00",2.0,201.94,0.06,0.44,65.09,0.81,2.52,3.04,0.54,123.1228,9.5911,"2023-12-03 12:00:21.111862+08:00","Bais"
"2023-12-03 12:00:23+08:00",2.0,280.38,0.14,0.91,86.55,1.28,7.26,10.19,1.66,120.5361,14.6761,"2023-12-03 12:00:23.713149+08:00","Balanga"
"2023-12-03 12:00:25+08:00",2.0,253.68,0.03,0.25,77.25,0.14,1.58,1.75,0.4,120.5649,18.0554,"2023-12-03 12:00:26.112553+08:00","Batac City"
"2023-12-03 12:00:27+08:00",2.0,213.62,0.34,2.34,85.12,4.23,3.48,7.01,0.86,121.05,13.75,"2023-12-03 12:00:27.971724+08:00","Batangas City"
"2023-12-03 12:00:30+08:00",2.0,196.93,0.06,0.45,63.66,0.59,1.94,2.27,0.48,122.8011,9.3636,"2023-12-03 12:00:30.703636+08:00","Bayawan"
"2023-12-03 12:00:33+08:00",2.0,198.6,0.02,0.19,62.94,6.8,3.0,3.8,0.1,123.7135,13.4083,"2023-12-03 12:00:34.113406+08:00","Baybay"
"2023-12-03 12:00:35+08:00",1.0,188.59,0.01,0.57,46.49,0.21,0.53,0.69,0.29,125.7675,8.7561,"2023-12-03 12:00:36.506459+08:00","Bayugan"
"2023-12-03 12:00:38+08:00",1.0,220.3,0.1,2.14,48.64,0.6,2.39,3.14,0.83,125.0336,11.0725,"2023-12-03 12:00:39.440964+08:00","Bislig"
"2023-12-03 12:00:41+08:00",2.0,277.04,0.61,3.98,86.55,8.7,4.41,9.77,2.15,121.0807,14.3427,"2023-12-03 12:00:43.027105+08:00","Biñan"
"2023-12-03 12:00:44+08:00",1.0,198.6,0.05,0.3,54.36,0.32,1.55,2.06,0.28,124.0055,11.0517,"2023-12-03 12:00:44.671653+08:00","Bogo"
"2023-12-03 12:00:46+08:00",1.0,185.25,0.02,0.28,52.93,0.25,2.46,4.21,0.02,125.4319,11.6081,"2023-12-03 12:00:46.646186+08:00","Borongan"
"2023-12-03 12:00:49+08:00",1.0,195.27,0.05,0.46,52.93,0.2,0.59,0.72,0.29,125.5436,8.9492,"2023-12-03 12:00:49.437602+08:00","Butuan"
"2023-12-03 12:00:51+08:00",1.0,206.95,0.02,0.21,57.22,0.21,0.84,0.98,0.22,125.5344,9.1236,"2023-12-03 12:00:52.160670+08:00","Cabadbaran"
"2023-12-03 12:00:53+08:00",2.0,253.68,0.1,0.56,74.39,0.31,3.01,3.78,0.93,120.9667,15.4833,"2023-12-03 12:00:54.135723+08:00","Cabanatuan City"
"2023-12-03 12:00:55+08:00",2.0,277.04,0.61,3.98,86.55,8.7,4.41,9.77,2.15,121.1262,14.2726,"2023-12-03 12:00:56.170676+08:00","Cabuyao"
"2023-12-03 12:00:57+08:00",1.0,190.26,0.03,0.17,57.94,0.97,2.07,3.18,0.05,123.2856,10.9506,"2023-12-03 12:00:57.491327+08:00","Cadiz"
"2023-12-03 12:00:59+08:00",1.0,230.31,0.05,1.33,59.37,0.48,1.36,2.12,1.3,124.6472,8.4822,"2023-12-03 12:00:59.921458+08:00","Cagayan de Oro"
"2023-12-03 12:01:02+08:00",2.0,206.95,0.23,2.46,77.25,4.41,2.75,7.15,0.93,120.8133,13.9324,"2023-12-03 12:01:02.771784+08:00","Calaca"
"2023-12-03 12:01:04+08:00",2.0,277.04,0.61,3.98,86.55,8.7,4.41,9.77,2.15,121.1653,14.2117,"2023-12-03 12:01:05.170085+08:00","Calamba"
"2023-12-03 12:01:06+08:00",2.0,196.93,0.22,1.71,87.98,3.76,3.63,7.05,0.17,121.1803,13.4117,"2023-12-03 12:01:06.603659+08:00","Calapan"
"2023-12-03 12:01:08+08:00",1.0,185.25,0.03,0.22,43.63,2.98,2.55,3.14,0.2,124.6,12.0667,"2023-12-03 12:01:09.189192+08:00","Calbayog City"
"2023-12-03 12:01:11+08:00",2.0,263.69,0.26,1.82,80.82,2.5,5.41,8.48,1.41,120.9667,14.65,"2023-12-03 12:01:11.559329+08:00","Caloocan City"
"2023-12-03 12:01:14+08:00",2.0,257.02,0.04,0.25,71.53,0.48,2.66,2.88,0.84,120.4517,17.1947,"2023-12-03 12:01:14.268684+08:00","Candon"
"2023-12-03 12:01:16+08:00",1.0,210.29,0.12,0.65,58.65,0.45,2.15,2.66,1.12,123.1964,10.3864,"2023-12-03 12:01:16.525108+08:00","Canlaon"
"2023-12-03 12:01:18+08:00",2.0,205.28,0.16,0.92,67.23,2.21,2.07,2.94,0.88,123.6402,10.1061,"2023-12-03 12:01:18.981261+08:00","Carcar"
"2023-12-03 12:01:20+08:00",2.0,277.04,0.61,3.98,86.55,8.7,4.41,9.77,2.15,121.0576,14.3132,"2023-12-03 12:01:20.958757+08:00","Carmona"
"2023-12-03 12:01:23+08:00",1.0,190.26,0.03,0.26,47.92,0.28,1.99,2.71,0.32,124.8861,11.7753,"2023-12-03 12:01:23.685746+08:00","Catbalogan"
"2023-12-03 12:01:25+08:00",2.0,340.46,0.16,1.08,60.8,0.33,6.11,6.8,3.45,121.7725,16.9347,"2023-12-03 12:01:26.134843+08:00","Cauayan"
"2023-12-03 12:01:28+08:00",3.0,360.49,0.39,4.03,107.29,7.21,9.16,16.31,3.39,120.9169,14.4825,"2023-12-03 12:01:28.662595+08:00","Cavite City"
"2023-12-03 12:01:30+08:00",2.0,208.62,0.2,1.14,61.51,2.15,1.81,2.4,1.05,123.8907,10.3167,"2023-12-03 12:01:31.145839+08:00","Cebu City"
"2023-12-03 12:01:32+08:00",2.0,267.03,0.42,2.21,74.39,3.31,5.55,9.1,1.28,121.1,14.6333,"2023-12-03 12:01:32.940610+08:00","City of Marikina"
"2023-12-03 12:01:35+08:00",1.0,193.6,0.04,0.3,55.79,1.86,2.32,2.74,0.2,123.5833,12.3333,"2023-12-03 12:01:35.364697+08:00","City of Masbate"
"2023-12-03 12:01:36+08:00",1.0,210.29,0.14,0.66,50.78,1.79,3.6,4.37,0.98,122.65,11.15,"2023-12-03 12:01:37.210539+08:00","City of Passi"
"2023-12-03 12:01:38+08:00",1.0,193.6,0.03,0.28,54.36,2.21,1.72,2.35,0.26,123.9833,12.9833,"2023-12-03 12:01:39.189837+08:00","City of Sorsogon"
"2023-12-03 12:01:41+08:00",1.0,226.97,0.02,0.66,50.78,0.22,1.9,2.35,1.38,124.2464,7.2236,"2023-12-03 12:01:41.425212+08:00","Cotabato"
"2023-12-03 12:01:43+08:00",2.0,257.02,0.03,0.33,63.66,0.08,2.44,2.6,0.41,121.5047,17.7061,"2023-12-03 12:01:43.669995+08:00","Dagupan"
"2023-12-03 12:01:45+08:00",2.0,201.94,0.07,1.23,66.52,2.33,2.37,2.85,0.21,124.0272,10.5208,"2023-12-03 12:01:45.660334+08:00","Danao"
"2023-12-03 12:01:47+08:00",2.0,208.62,0.2,1.14,61.51,2.15,1.81,2.4,1.05,123.9469,10.2706,"2023-12-03 12:01:48.198118+08:00","Dapitan"
"2023-12-03 12:01:50+08:00",3.0,343.8,0.32,3.51,108.72,8.46,8.54,14.8,3.04,120.9367,14.3294,"2023-12-03 12:01:50.337784+08:00","Dasmariñas"
"2023-12-03 12:01:51+08:00",1.0,257.02,0.18,4.28,37.19,1.16,1.31,1.8,1.19,125.6128,7.0731,"2023-12-03 12:01:51.855442+08:00","Davao"
"2023-12-03 12:01:53+08:00",1.0,196.93,0.02,0.5,52.21,0.23,0.5,0.64,0.48,125.3572,6.7497,"2023-12-03 12:01:53.988641+08:00","Digos"
"2023-12-03 12:01:55+08:00",1.0,190.26,0.02,0.43,56.51,0.28,0.95,1.13,0.13,123.3414,8.5894,"2023-12-03 12:01:55.545869+08:00","Dipolog"
"2023-12-03 12:01:56+08:00",2.0,193.6,0.06,0.5,65.09,0.73,2.13,2.54,0.31,123.3081,9.3103,"2023-12-03 12:01:57.094065+08:00","Dumaguete"
"2023-12-03 12:01:59+08:00",1.0,201.94,0.05,0.66,57.22,0.29,0.68,0.94,1.82,124.5225,8.5631,"2023-12-03 12:01:59.953699+08:00","El Salvador"
"2023-12-03 12:02:01+08:00",1.0,191.93,0.04,0.23,58.65,0.87,2.31,3.48,0.04,123.4992,10.8403,"2023-12-03 12:02:01.914614+08:00","Escalante"
"2023-12-03 12:02:04+08:00",2.0,263.69,0.11,0.72,79.39,0.53,4.2,5.56,1.2,120.9464,15.3072,"2023-12-03 12:02:04.679886+08:00","Gapan"
"2023-12-03 12:02:06+08:00",1.0,195.27,0.04,0.53,49.35,0.2,0.5,0.65,0.62,125.1717,6.1128,"2023-12-03 12:02:06.263268+08:00","General Santos"
"2023-12-03 12:02:08+08:00",3.0,343.8,0.32,3.51,108.72,8.46,8.54,14.8,3.04,120.8817,14.3869,"2023-12-03 12:02:09.021848+08:00","General Trias"
"2023-12-03 12:02:10+08:00",2.0,188.59,0.02,0.19,60.8,0.07,0.5,0.57,0.16,125.1167,8.8333,"2023-12-03 12:02:10.817305+08:00","Gingoog City"
"2023-12-03 12:02:13+08:00",2.0,270.37,0.16,1.31,77.25,1.37,5.79,7.29,3.26,122.8706,10.0989,"2023-12-03 12:02:13.521164+08:00","Himamaylan"
"2023-12-03 12:02:15+08:00",2.0,440.6,0.31,1.99,56.51,0.37,11.13,11.88,3.01,121.8892,17.1485,"2023-12-03 12:02:15.423427+08:00","Ilagan"
"2023-12-03 12:02:17+08:00",1.0,198.6,0.05,1.19,55.79,1.22,0.69,0.99,0.41,124.4,8.25,"2023-12-03 12:02:17.910971+08:00","Iligan City"
"2023-12-03 12:02:19+08:00",1.0,213.62,0.11,0.52,57.22,1.37,3.04,3.61,0.76,122.55,10.75,"2023-12-03 12:02:19.857752+08:00","Iloilo City"
"2023-12-03 12:02:22+08:00",3.0,360.49,0.39,4.03,107.29,7.21,9.16,16.31,3.39,120.9367,14.4297,"2023-12-03 12:02:22.899622+08:00","Imus"
"2023-12-03 12:02:25+08:00",1.0,203.61,0.08,0.53,52.21,7.03,3.54,4.34,0.73,123.4167,13.4167,"2023-12-03 12:02:26.152510+08:00","Iriga City"
"2023-12-03 12:02:28+08:00",2.0,233.65,0.16,1.08,66.52,1.61,3.61,4.94,1.57,122.9888,10.2048,"2023-12-03 12:02:28.936336+08:00","Isabela"
"2023-12-03 12:02:31+08:00",2.0,220.3,0.1,0.65,65.09,0.63,3.18,3.83,1.46,122.8122,9.9889,"2023-12-03 12:02:32.367739+08:00","Kabankalan"
"2023-12-03 12:02:33+08:00",2.0,387.19,0.21,6.34,60.8,1.88,6.82,8.73,11.91,125.0894,7.0083,"2023-12-03 12:02:34.304190+08:00","Kidapawan"
"2023-12-03 12:02:35+08:00",3.0,540.73,0.18,5.48,100.14,2.33,14.95,17.69,17.48,124.8469,6.5031,"2023-12-03 12:02:37.563393+08:00","Koronadal"
"2023-12-03 12:02:38+08:00",2.0,205.28,0.11,0.67,60.08,1.64,2.76,4.11,0.43,122.9208,10.4233,"2023-12-03 12:02:38.980622+08:00","La Carlota"
"2023-12-03 12:02:40+08:00",1.0,186.92,0.02,0.59,45.06,0.26,0.55,0.62,0.18,125.7022,6.0872,"2023-12-03 12:02:40.655350+08:00","Lamitan"
"2023-12-03 12:02:43+08:00",2.0,253.68,0.03,0.25,77.25,0.14,1.58,1.75,0.4,120.5936,18.1989,"2023-12-03 12:02:43.235584+08:00","Laoag"
"2023-12-03 12:02:45+08:00",2.0,208.62,0.2,1.14,61.51,2.15,1.81,2.4,1.05,123.9494,10.3103,"2023-12-03 12:02:45.391940+08:00","Lapu-Lapu City"
"2023-12-03 12:02:46+08:00",3.0,360.49,0.39,4.03,107.29,7.21,9.16,16.31,3.39,120.9828,14.4506,"2023-12-03 12:02:46.820634+08:00","Las Piñas"
"2023-12-03 12:02:48+08:00",1.0,203.61,0.08,0.76,59.37,5.42,2.07,2.62,0.36,123.7333,13.1333,"2023-12-03 12:02:49.188180+08:00","Legazpi City"
"2023-12-03 12:02:50+08:00",2.0,200.27,0.04,0.34,60.08,7.03,3.0,3.59,0.41,123.5325,13.2403,"2023-12-03 12:02:51.035801+08:00","Ligao"
"2023-12-03 12:02:53+08:00",2.0,211.95,0.14,1.05,75.82,1.59,2.38,6.8,1.25,121.1667,13.95,"2023-12-03 12:02:53.466439+08:00","Lipa City"
"2023-12-03 12:02:54+08:00",1.0,216.96,0.09,0.71,50.07,1.34,3.35,3.89,0.83,122.5967,10.8794,"2023-12-03 12:02:54.763699+08:00","Lucena"
"2023-12-03 12:02:57+08:00",1.0,216.96,0.09,0.71,50.07,1.34,3.35,3.89,0.83,122.4347,10.8925,"2023-12-03 12:02:57.321688+08:00","Maasin"
"2023-12-03 12:02:58+08:00",2.0,260.35,0.1,0.65,80.82,0.39,4.91,6.14,1.43,120.5736,15.2216,"2023-12-03 12:02:58.990197+08:00","Mabalacat City"
"2023-12-03 12:03:01+08:00",2.0,347.14,0.73,4.84,83.69,7.21,6.34,11.53,3.26,121.0327,14.5503,"2023-12-03 12:03:01.486554+08:00","Makati City"
"2023-12-03 12:03:03+08:00",2.0,213.62,0.07,0.56,90.12,1.13,2.06,3.0,0.46,119.9379,15.6361,"2023-12-03 12:03:03.664883+08:00","Malabon"
"2023-12-03 12:03:05+08:00",1.0,175.24,0.02,0.55,42.92,0.11,0.5,0.64,0.59,125.0833,8.15,"2023-12-03 12:03:05.590358+08:00","Malaybalay"
"2023-12-03 12:03:08+08:00",2.0,250.34,0.12,0.79,75.1,0.75,4.54,6.19,1.03,120.8117,14.8419,"2023-12-03 12:03:08.280216+08:00","Malolos"
"2023-12-03 12:03:11+08:00",2.0,347.14,0.73,4.84,83.69,7.21,6.34,11.53,3.26,121.0409,14.5832,"2023-12-03 12:03:11.816122+08:00","Mandaluyong City"
"2023-12-03 12:03:12+08:00",2.0,208.62,0.2,1.14,61.51,2.15,1.81,2.4,1.05,123.9333,10.3333,"2023-12-03 12:03:13.197475+08:00","Mandaue City"
"2023-12-03 12:03:14+08:00",2.0,263.69,0.26,1.82,80.82,2.5,5.41,8.48,1.41,120.9822,14.6042,"2023-12-03 12:03:14.827306+08:00","Manila"
"2023-12-03 12:03:16+08:00",1.0,293.73,0.15,3.94,33.26,1.65,5.36,6.37,5.0,124.2928,7.9986,"2023-12-03 12:03:16.877127+08:00","Marawi"
"2023-12-03 12:03:18+08:00",2.0,200.27,0.12,1.74,61.51,1.22,1.7,2.17,0.18,125.4708,9.7339,"2023-12-03 12:03:18.615293+08:00","Mati"
"2023-12-03 12:03:20+08:00",2.0,263.69,0.26,1.82,80.82,2.5,5.41,8.48,1.41,120.9608,14.7369,"2023-12-03 12:03:20.795812+08:00","Meycauayan"
"2023-12-03 12:03:22+08:00",2.0,247.0,0.08,0.44,71.53,0.21,2.16,2.73,0.8,120.9031,15.7161,"2023-12-03 12:03:22.563307+08:00","Muñoz"
"2023-12-03 12:03:24+08:00",2.0,191.93,0.02,0.17,60.8,3.31,3.56,4.92,0.15,123.1814,13.6192,"2023-12-03 12:03:24.613112+08:00","Naga"
"2023-12-03 12:03:27+08:00",2.0,263.69,0.26,1.82,80.82,2.5,5.41,8.48,1.41,120.95,14.6667,"2023-12-03 12:03:28.001730+08:00","Navotas"
"2023-12-03 12:03:30+08:00",2.0,263.69,0.11,0.72,87.26,1.46,6.85,8.61,1.27,120.2828,14.8292,"2023-12-03 12:03:30.620556+08:00","Olongapo"
"2023-12-03 12:03:32+08:00",1.0,203.61,0.07,0.89,40.77,0.31,1.52,2.01,0.63,124.6075,11.0064,"2023-12-03 12:03:32.917797+08:00","Ormoc"
"2023-12-03 12:03:34+08:00",1.0,188.59,0.03,0.23,58.65,0.29,1.04,1.26,0.07,123.8044,8.4858,"2023-12-03 12:03:34.656536+08:00","Oroquieta"
"2023-12-03 12:03:36+08:00",1.0,191.93,0.05,0.3,52.21,0.18,0.5,0.64,0.28,123.8333,8.15,"2023-12-03 12:03:37.090695+08:00","Ozamiz City"
"2023-12-03 12:03:38+08:00",1.0,220.3,0.06,0.71,46.49,0.28,0.98,1.27,1.35,123.43700000000001,7.8257,"2023-12-03 12:03:38.929226+08:00","Pagadian"
"2023-12-03 12:03:40+08:00",2.0,253.68,0.11,0.6,72.24,0.3,3.15,3.86,0.82,121.0833,15.55,"2023-12-03 12:03:40.640626+08:00","Palayan City"
"2023-12-03 12:03:42+08:00",1.0,211.95,0.06,1.74,41.13,0.46,0.75,1.01,0.68,125.6842,7.3081,"2023-12-03 12:03:42.285939+08:00","Panabo"
"2023-12-03 12:03:43+08:00",2.0,347.14,0.73,4.84,83.69,7.21,6.34,11.53,3.26,121.0175,14.4816,"2023-12-03 12:03:43.626684+08:00","Paranaque City"
"2023-12-03 12:03:45+08:00",2.0,347.14,0.73,4.84,83.69,7.21,6.34,11.53,3.26,121.065,14.587,"2023-12-03 12:03:45.992706+08:00","Pasig"
"2023-12-03 12:03:47+08:00",2.0,203.61,0.09,0.7,62.23,0.84,3.49,5.84,0.05,118.7333,9.7333,"2023-12-03 12:03:48.165863+08:00","Puerto Princesa City"
"2023-12-03 12:03:49+08:00",2.0,267.03,0.42,2.21,74.39,3.31,5.55,9.1,1.28,121.0333,14.6333,"2023-12-03 12:03:49.641634+08:00","Quezon City"
"2023-12-03 12:03:51+08:00",1.0,307.08,0.04,1.08,57.94,0.18,3.6,4.0,1.03,121.6201,17.1189,"2023-12-03 12:03:52.180274+08:00","Roxas"
"2023-12-03 12:03:54+08:00",1.0,191.93,0.04,0.23,58.65,0.87,2.31,3.48,0.04,123.4242,10.9447,"2023-12-03 12:03:54.392843+08:00","Sagay"
"2023-12-03 12:03:55+08:00",2.0,280.38,0.14,0.91,86.55,1.28,7.26,10.19,1.66,120.5431,14.7678,"2023-12-03 12:03:55.865674+08:00","Samal"
"2023-12-03 12:03:57+08:00",2.0,253.68,0.1,0.56,74.39,0.31,3.01,3.78,0.93,120.8931,15.5448,"2023-12-03 12:03:57.446587+08:00","San Carlos"
"2023-12-03 12:03:59+08:00",2.0,280.38,0.03,0.26,74.39,0.56,5.61,7.71,1.12,120.3166,16.6159,"2023-12-03 12:03:59.556676+08:00","San Fernando"
"2023-12-03 12:04:01+08:00",1.0,293.73,0.1,1.61,52.93,0.27,4.72,5.14,1.2,121.8712,17.8927,"2023-12-03 12:04:01.731548+08:00","San Jose"
"2023-12-03 12:04:03+08:00",2.0,236.99,0.08,0.47,70.81,0.49,4.71,6.31,0.48,121.0453,14.8139,"2023-12-03 12:04:05.482883+08:00","San Jose del Monte"
"2023-12-03 12:04:07+08:00",2.0,293.73,0.05,0.39,85.12,0.3,2.61,2.89,1.31,120.4583,17.7422,"2023-12-03 12:04:07.922765+08:00","San Juan"
"2023-12-03 12:04:09+08:00",2.0,283.72,0.19,1.31,84.4,1.49,5.93,8.04,1.71,120.6197,14.9696,"2023-12-03 12:04:09.494531+08:00","San Pablo"
"2023-12-03 12:04:11+08:00",1.0,420.57,0.16,3.04,39.7,0.42,9.07,9.85,2.82,121.8833,17.2,"2023-12-03 12:04:12.069499+08:00","San Pedro"
"2023-12-03 12:04:14+08:00",2.0,253.68,0.1,0.56,74.39,0.31,3.01,3.78,0.93,120.9378,15.4238,"2023-12-03 12:04:14.404252+08:00","Santa Rosa"
"2023-12-03 12:04:16+08:00",2.0,267.03,0.05,0.36,70.1,0.33,2.31,2.65,1.46,120.4449,17.2939,"2023-12-03 12:04:16.561641+08:00","Santiago"
"2023-12-03 12:04:18+08:00",1.0,333.79,0.13,1.54,49.35,0.34,5.35,6.03,1.73,121.7645,17.3997,"2023-12-03 12:04:19.091120+08:00","Santo Tomas"
"2023-12-03 12:04:21+08:00",1.0,193.6,0.04,0.28,58.65,1.55,2.65,3.92,0.07,122.9667,10.8,"2023-12-03 12:04:21.595421+08:00","Silay City"
"2023-12-03 12:04:24+08:00",2.0,230.31,0.08,0.71,71.53,0.98,4.98,5.94,1.17,122.4042,9.7519,"2023-12-03 12:04:24.424299+08:00","Sipalay"
"2023-12-03 12:04:25+08:00",2.0,200.27,0.12,1.74,61.51,1.22,1.7,2.17,0.18,125.5,9.75,"2023-12-03 12:04:25.981812+08:00","Surigao City"
"2023-12-03 12:04:27+08:00",1.0,203.61,0.06,0.84,53.64,6.91,3.13,3.94,0.34,123.7336,13.3586,"2023-12-03 12:04:27.995613+08:00","Tabaco"
"2023-12-03 12:04:30+08:00",1.0,277.04,0.02,0.4,57.94,0.1,2.91,3.15,0.58,121.4443,17.4189,"2023-12-03 12:04:30.754253+08:00","Tabuk"
"2023-12-03 12:04:31+08:00",1.0,185.25,0.03,0.24,47.21,0.14,1.78,2.42,0.14,125.0,11.25,"2023-12-03 12:04:32.256317+08:00","Tacloban City"
"2023-12-03 12:04:34+08:00",1.0,263.69,0.02,1.03,48.64,0.19,2.71,3.07,1.92,124.6764,6.6925,"2023-12-03 12:04:35.153632+08:00","Tacurong"
"2023-12-03 12:04:37+08:00",2.0,257.02,0.38,3.04,91.55,8.23,5.23,10.75,1.6,120.9337,14.1059,"2023-12-03 12:04:37.699248+08:00","Tagaytay City"
"2023-12-03 12:04:39+08:00",2.0,347.14,0.73,4.84,83.69,7.21,6.34,11.53,3.26,121.0792,14.5243,"2023-12-03 12:04:39.351396+08:00","Taguig"
"2023-12-03 12:04:40+08:00",2.0,190.26,0.01,0.23,60.8,0.24,4.34,6.91,0.06,122.9226,14.1343,"2023-12-03 12:04:40.981917+08:00","Talisay"
"2023-12-03 12:04:42+08:00",2.0,230.31,0.44,3.13,80.82,7.51,3.48,8.69,1.33,121.1498,14.0863,"2023-12-03 12:04:42.290402+08:00","Tanauan"
"2023-12-03 12:04:44+08:00",1.0,186.92,0.01,0.19,51.5,0.06,0.71,0.96,0.09,126.1986,9.0783,"2023-12-03 12:04:44.417719+08:00","Tandag"
"2023-12-03 12:04:46+08:00",1.0,193.6,0.04,0.28,58.65,1.55,2.65,3.92,0.07,122.9306,10.6339,"2023-12-03 12:04:47.124126+08:00","Tangub"
"2023-12-03 12:04:48+08:00",2.0,201.94,0.06,0.44,65.09,0.81,2.52,3.04,0.54,123.1583,9.5153,"2023-12-03 12:04:48.457358+08:00","Tanjay"
"2023-12-03 12:04:50+08:00",2.0,273.71,0.14,0.8,82.25,0.51,5.31,6.44,1.76,120.5986,15.4889,"2023-12-03 12:04:50.392212+08:00","Tarlac City"
"2023-12-03 12:04:52+08:00",2.0,196.93,0.12,0.91,60.08,1.07,2.07,5.57,0.35,121.5911,14.0289,"2023-12-03 12:04:52.387569+08:00","Tayabas"
"2023-12-03 12:04:54+08:00",2.0,203.61,0.09,0.69,62.94,1.27,2.3,3.56,1.43,123.6333,10.3833,"2023-12-03 12:04:54.601129+08:00","Toledo City"
"2023-12-03 12:04:56+08:00",1.0,283.72,0.08,0.65,56.51,0.14,4.29,4.63,0.89,121.7269,17.6131,"2023-12-03 12:04:56.498151+08:00","Tuguegarao"
"2023-12-03 12:04:57+08:00",2.0,277.04,0.2,1.25,88.69,0.98,5.49,6.5,2.28,120.5711,15.9761,"2023-12-03 12:04:57.793006+08:00","Urdaneta"
"2023-12-03 12:04:59+08:00",1.0,200.27,0.06,0.48,49.35,0.21,1.15,1.51,0.42,124.5725,11.1089,"2023-12-03 12:04:59.591358+08:00","Valencia"
"2023-12-03 12:05:01+08:00",2.0,263.69,0.26,1.82,80.82,2.5,5.41,8.48,1.41,120.9667,14.7,"2023-12-03 12:05:01.784156+08:00","Valenzuela"
"2023-12-03 12:05:03+08:00",1.0,190.26,0.03,0.2,57.22,1.46,2.36,3.6,0.03,123.0778,10.9,"2023-12-03 12:05:03.948947+08:00","Victorias"
"2023-12-03 12:05:05+08:00",2.0,297.07,0.03,0.29,84.4,0.31,3.28,4.18,1.01,120.3869,17.5747,"2023-12-03 12:05:05.912421+08:00","Vigan"
"2023-12-03 12:05:08+08:00",1.0,226.97,0.08,1.48,42.56,0.51,1.42,1.62,0.82,122.0696,6.9135,"2023-12-03 12:05:08.284960+08:00","Zamboanga City"
"2023-12-03 15:00:01+08:00",2.0,283.72,0.1,0.93,91.55,1.4,11.41,13.05,1.92,119.9811,16.1561,"2023-12-03 15:00:01.336219+08:00","Alaminos"
"2023-12-03 15:00:18+08:00",2.0,267.03,0.21,2.01,71.53,1.73,4.6,6.0,1.9,120.5833,15.15,"2023-12-03 15:00:18.554325+08:00","Angeles City"
"2023-12-03 15:00:20+08:00",2.0,250.34,0.08,0.44,64.37,0.17,2.89,3.43,0.57,121.19,15.6181,"2023-12-03 15:00:20.525848+08:00","Antipolo"
"2023-12-03 15:00:22+08:00",1.0,190.26,0.04,0.31,50.78,2.0,2.26,2.64,0.19,123.5085,12.2285,"2023-12-03 15:00:23.074119+08:00","Bacolod"
"2023-12-03 15:00:24+08:00",2.0,323.77,0.29,5.66,73.67,5.72,6.23,10.77,2.53,120.929,14.459000000000001,"2023-12-03 15:00:24.570199+08:00","Bacoor"
"2023-12-03 15:00:25+08:00",1.0,205.28,0.11,0.77,59.37,1.07,2.17,3.24,0.52,122.8333,10.5333,"2023-12-03 15:00:26.130504+08:00","Bago City"
"2023-12-03 15:00:28+08:00",2.0,300.41,0.04,0.8,72.96,0.98,10.93,12.21,1.58,120.5931,16.4164,"2023-12-03 15:00:28.951193+08:00","Baguio"
"2023-12-03 15:00:30+08:00",2.0,200.27,0.03,0.52,62.23,0.44,1.67,1.97,0.6,123.1228,9.5911,"2023-12-03 15:00:31.066530+08:00","Bais"
"2023-12-03 15:00:32+08:00",2.0,233.65,0.1,0.87,69.38,0.95,3.98,6.31,0.98,120.5361,14.6761,"2023-12-03 15:00:33.110468+08:00","Balanga"
"2023-12-03 15:00:35+08:00",2.0,243.66,0.04,0.36,75.82,0.13,1.27,1.38,0.35,120.5649,18.0554,"2023-12-03 15:00:35.904946+08:00","Batac City"
"2023-12-03 15:00:38+08:00",2.0,208.62,0.27,2.44,72.96,2.92,2.23,4.04,0.88,121.05,13.75,"2023-12-03 15:00:39.000150+08:00","Batangas City"
"2023-12-03 15:00:41+08:00",2.0,193.6,0.03,0.48,62.23,0.34,1.56,1.79,0.5,122.8011,9.3636,"2023-12-03 15:00:41.806989+08:00","Bayawan"
"2023-12-03 15:00:43+08:00",1.0,196.93,0.02,0.21,57.22,7.21,1.97,2.37,0.08,123.7135,13.4083,"2023-12-03 15:00:44.130100+08:00","Baybay"
"2023-12-03 15:00:46+08:00",1.0,188.59,0.02,0.4,49.35,0.18,0.5,0.61,0.33,125.7675,8.7561,"2023-12-03 15:00:46.943193+08:00","Bayugan"
"2023-12-03 15:00:50+08:00",1.0,290.39,0.2,6.34,52.21,1.52,2.87,3.67,2.19,125.0336,11.0725,"2023-12-03 15:00:52.535256+08:00","Bislig"
"2023-12-03 15:00:54+08:00",2.0,257.02,0.68,4.24,68.67,7.27,3.47,7.12,1.74,121.0807,14.3427,"2023-12-03 15:00:54.799317+08:00","Biñan"
"2023-12-03 15:00:56+08:00",1.0,196.93,0.03,0.33,51.5,0.21,1.23,1.54,0.24,124.0055,11.0517,"2023-12-03 15:00:56.604300+08:00","Bogo"
"2023-12-03 15:00:58+08:00",1.0,186.92,0.01,0.42,54.36,0.26,2.78,4.24,0.02,125.4319,11.6081,"2023-12-03 15:00:58.599459+08:00","Borongan"
"2023-12-03 15:01:01+08:00",1.0,200.27,0.03,0.37,52.93,0.21,0.59,0.7,0.38,125.5436,8.9492,"2023-12-03 15:01:01.502770+08:00","Butuan"
"2023-12-03 15:01:04+08:00",2.0,220.3,0.04,0.47,68.67,0.46,1.23,1.39,0.26,125.5344,9.1236,"2023-12-03 15:01:04.326250+08:00","Cabadbaran"
"2023-12-03 15:01:05+08:00",2.0,243.66,0.12,0.68,69.38,0.32,3.22,3.95,0.86,120.9667,15.4833,"2023-12-03 15:01:05.867770+08:00","Cabanatuan City"
"2023-12-03 15:01:06+08:00",2.0,257.02,0.68,4.24,68.67,7.27,3.47,7.12,1.74,121.1262,14.2726,"2023-12-03 15:01:07.276810+08:00","Cabuyao"
"2023-12-03 15:01:09+08:00",1.0,193.6,0.02,0.22,58.65,0.78,2.42,3.46,0.1,123.2856,10.9506,"2023-12-03 15:01:09.357440+08:00","Cadiz"
"2023-12-03 15:01:11+08:00",1.0,198.6,0.01,0.94,53.64,0.4,0.5,0.95,0.66,124.6472,8.4822,"2023-12-03 15:01:11.755346+08:00","Cagayan de Oro"
"2023-12-03 15:01:13+08:00",2.0,206.95,0.32,2.34,75.82,4.35,2.43,5.31,0.95,120.8133,13.9324,"2023-12-03 15:01:14.008971+08:00","Calaca"
"2023-12-03 15:01:15+08:00",2.0,257.02,0.68,4.24,68.67,7.27,3.47,7.12,1.74,121.1653,14.2117,"2023-12-03 15:01:15.961208+08:00","Calamba"
"2023-12-03 15:01:18+08:00",2.0,191.93,0.16,1.54,76.53,2.89,2.31,3.91,0.16,121.1803,13.4117,"2023-12-03 15:01:19.035836+08:00","Calapan"
"2023-12-03 15:01:21+08:00",1.0,186.92,0.02,0.23,43.27,3.13,2.63,3.28,0.23,124.6,12.0667,"2023-12-03 15:01:21.894251+08:00","Calbayog City"
"2023-12-03 15:01:24+08:00",2.0,267.03,0.33,2.53,70.81,2.74,5.44,8.78,1.46,120.9667,14.65,"2023-12-03 15:01:24.805226+08:00","Caloocan City"
"2023-12-03 15:01:27+08:00",2.0,267.03,0.01,0.21,74.39,0.26,3.16,3.45,0.8,120.4517,17.1947,"2023-12-03 15:01:27.367397+08:00","Candon"
"2023-12-03 15:01:29+08:00",1.0,206.95,0.13,0.94,55.79,0.54,2.22,2.6,1.17,123.1964,10.3864,"2023-12-03 15:01:30.061544+08:00","Canlaon"
"2023-12-03 15:01:31+08:00",2.0,210.29,0.12,1.71,60.08,2.44,1.62,2.53,1.11,123.6402,10.1061,"2023-12-03 15:01:32.070359+08:00","Carcar"
"2023-12-03 15:01:34+08:00",2.0,257.02,0.68,4.24,68.67,7.27,3.47,7.12,1.74,121.0576,14.3132,"2023-12-03 15:01:34.827824+08:00","Carmona"
"2023-12-03 15:01:37+08:00",1.0,188.59,0.02,0.25,50.07,0.26,1.91,2.52,0.25,124.8861,11.7753,"2023-12-03 15:01:37.444762+08:00","Catbalogan"
"2023-12-03 15:01:39+08:00",1.0,330.45,0.13,1.32,59.37,0.35,5.69,6.28,4.24,121.7725,16.9347,"2023-12-03 15:01:39.400854+08:00","Cauayan"
"2023-12-03 15:01:41+08:00",2.0,323.77,0.29,5.66,73.67,5.72,6.23,10.77,2.53,120.9169,14.4825,"2023-12-03 15:01:42.631879+08:00","Cavite City"
"2023-12-03 15:01:44+08:00",1.0,223.64,0.22,1.78,52.21,2.06,1.52,2.15,1.57,123.8907,10.3167,"2023-12-03 15:01:44.820309+08:00","Cebu City"
"2023-12-03 15:01:46+08:00",2.0,263.69,0.34,2.79,63.66,3.31,5.69,9.54,1.25,121.1,14.6333,"2023-12-03 15:01:46.395387+08:00","City of Marikina"
"2023-12-03 15:01:47+08:00",1.0,190.26,0.04,0.31,50.78,2.0,2.26,2.64,0.19,123.5833,12.3333,"2023-12-03 15:01:49.174520+08:00","City of Masbate"
"2023-12-03 15:01:50+08:00",1.0,210.29,0.14,0.86,47.21,1.37,2.99,3.54,1.11,122.65,11.15,"2023-12-03 15:01:50.676014+08:00","City of Passi"
"2023-12-03 15:01:51+08:00",1.0,186.92,0.04,0.35,48.64,2.15,1.62,2.11,0.3,123.9833,12.9833,"2023-12-03 15:01:52.099254+08:00","City of Sorsogon"
"2023-12-03 15:01:53+08:00",1.0,250.34,0.02,1.3,47.92,0.26,2.06,2.5,2.5,124.2464,7.2236,"2023-12-03 15:01:53.553700+08:00","Cotabato"
"2023-12-03 15:01:56+08:00",1.0,267.03,0.03,0.57,55.79,0.12,3.6,3.77,0.55,121.5047,17.7061,"2023-12-03 15:01:56.343215+08:00","Dagupan"
"2023-12-03 15:01:57+08:00",1.0,198.6,0.06,1.01,59.37,1.22,1.22,1.44,0.24,124.0272,10.5208,"2023-12-03 15:01:57.910170+08:00","Danao"
"2023-12-03 15:02:00+08:00",1.0,223.64,0.22,1.78,52.21,2.06,1.52,2.15,1.57,123.9469,10.2706,"2023-12-03 15:02:00.343020+08:00","Dapitan"
"2023-12-03 15:02:02+08:00",2.0,280.38,0.38,3.38,77.96,5.31,4.05,7.22,1.76,120.9367,14.3294,"2023-12-03 15:02:02.806607+08:00","Dasmariñas"
"2023-12-03 15:02:05+08:00",1.0,407.22,0.1,13.02,22.53,2.98,3.22,4.26,3.04,125.6128,7.0731,"2023-12-03 15:02:05.485910+08:00","Davao"
"2023-12-03 15:02:07+08:00",1.0,198.6,0.0,1.03,51.5,0.55,0.5,0.61,0.45,125.3572,6.7497,"2023-12-03 15:02:08.125671+08:00","Digos"
"2023-12-03 15:02:10+08:00",1.0,186.92,0.01,0.31,57.22,0.28,0.82,0.99,0.09,123.3414,8.5894,"2023-12-03 15:02:10.904532+08:00","Dipolog"
"2023-12-03 15:02:12+08:00",1.0,195.27,0.03,0.84,56.51,0.5,1.59,1.87,0.55,123.3081,9.3103,"2023-12-03 15:02:13.413500+08:00","Dumaguete"
"2023-12-03 15:02:14+08:00",1.0,190.26,0.01,0.26,58.65,0.24,0.5,0.61,0.34,124.5225,8.5631,"2023-12-03 15:02:14.835463+08:00","El Salvador"
"2023-12-03 15:02:16+08:00",1.0,193.6,0.03,0.25,57.94,0.62,2.32,3.36,0.07,123.4992,10.8403,"2023-12-03 15:02:16.972195+08:00","Escalante"
"2023-12-03 15:02:19+08:00",2.0,230.31,0.06,0.75,65.8,0.35,2.54,3.42,0.78,120.9464,15.3072,"2023-12-03 15:02:19.907772+08:00","Gapan"
"2023-12-03 15:02:22+08:00",1.0,201.94,0.01,1.03,45.78,0.34,0.5,0.68,0.85,125.1717,6.1128,"2023-12-03 15:02:22.538056+08:00","General Santos"
"2023-12-03 15:02:24+08:00",2.0,280.38,0.38,3.38,77.96,5.31,4.05,7.22,1.76,120.8817,14.3869,"2023-12-03 15:02:24.828382+08:00","General Trias"
"2023-12-03 15:02:26+08:00",1.0,193.6,0.01,0.24,57.22,0.12,0.52,0.61,0.18,125.1167,8.8333,"2023-12-03 15:02:26.460757+08:00","Gingoog City"
"2023-12-03 15:02:27+08:00",2.0,226.97,0.11,1.14,65.09,0.81,2.38,3.09,1.92,122.8706,10.0989,"2023-12-03 15:02:28.156182+08:00","Himamaylan"
"2023-12-03 15:02:30+08:00",2.0,347.14,0.13,1.06,62.23,0.27,6.96,7.5,2.41,121.8892,17.1485,"2023-12-03 15:02:30.450482+08:00","Ilagan"
"2023-12-03 15:02:33+08:00",1.0,195.27,0.02,1.07,57.94,1.03,0.73,0.93,0.21,124.4,8.25,"2023-12-03 15:02:33.228673+08:00","Iligan City"
"2023-12-03 15:02:34+08:00",1.0,211.95,0.12,0.71,54.36,0.92,2.33,2.87,0.96,122.55,10.75,"2023-12-03 15:02:34.845150+08:00","Iloilo City"
"2023-12-03 15:02:36+08:00",2.0,323.77,0.29,5.66,73.67,5.72,6.23,10.77,2.53,120.9367,14.4297,"2023-12-03 15:02:37.286253+08:00","Imus"
"2023-12-03 15:02:38+08:00",1.0,205.28,0.06,0.79,45.78,7.33,2.84,3.35,0.74,123.4167,13.4167,"2023-12-03 15:02:38.920479+08:00","Iriga City"
"2023-12-03 15:02:40+08:00",2.0,216.96,0.13,1.06,62.94,1.03,2.17,2.98,1.28,122.9888,10.2048,"2023-12-03 15:02:40.473682+08:00","Isabela"
"2023-12-03 15:02:41+08:00",2.0,211.95,0.08,0.94,62.94,0.75,2.44,2.87,1.31,122.8122,9.9889,"2023-12-03 15:02:42.076155+08:00","Kabankalan"
"2023-12-03 15:02:43+08:00",1.0,357.15,0.14,6.26,42.92,1.67,5.06,6.41,9.75,125.0894,7.0083,"2023-12-03 15:02:44.057487+08:00","Kidapawan"
"2023-12-03 15:02:45+08:00",1.0,323.77,0.04,2.7,47.92,0.81,3.93,4.93,5.07,124.8469,6.5031,"2023-12-03 15:02:45.755944+08:00","Koronadal"
"2023-12-03 15:02:48+08:00",1.0,205.28,0.11,0.77,59.37,1.07,2.17,3.24,0.52,122.9208,10.4233,"2023-12-03 15:02:48.235461+08:00","La Carlota"
"2023-12-03 15:02:50+08:00",1.0,186.92,0.02,0.85,39.7,0.18,0.58,0.73,0.26,125.7022,6.0872,"2023-12-03 15:02:50.594125+08:00","Lamitan"
"2023-12-03 15:02:53+08:00",2.0,243.66,0.04,0.36,75.82,0.13,1.27,1.38,0.35,120.5936,18.1989,"2023-12-03 15:02:53.350693+08:00","Laoag"
"2023-12-03 15:02:55+08:00",1.0,223.64,0.22,1.78,52.21,2.06,1.52,2.15,1.57,123.9494,10.3103,"2023-12-03 15:02:56.035356+08:00","Lapu-Lapu City"
"2023-12-03 15:02:57+08:00",2.0,323.77,0.29,5.66,73.67,5.72,6.23,10.77,2.53,120.9828,14.4506,"2023-12-03 15:02:58.048403+08:00","Las Piñas"
"2023-12-03 15:02:59+08:00",1.0,201.94,0.07,0.88,52.93,5.72,1.95,2.56,0.43,123.7333,13.1333,"2023-12-03 15:02:59.921006+08:00","Legazpi City"
"2023-12-03 15:03:00+08:00",1.0,200.27,0.04,0.42,55.79,7.63,2.47,2.92,0.42,123.5325,13.2403,"2023-12-03 15:03:01.198217+08:00","Ligao"
"2023-12-03 15:03:03+08:00",2.0,208.62,0.12,1.32,70.1,1.57,2.15,5.02,1.14,121.1667,13.95,"2023-12-03 15:03:03.817868+08:00","Lipa City"
"2023-12-03 15:03:05+08:00",1.0,220.3,0.11,0.9,46.49,1.1,3.02,3.49,1.16,122.5967,10.8794,"2023-12-03 15:03:05.855361+08:00","Lucena"
"2023-12-03 15:03:08+08:00",1.0,220.3,0.11,0.9,46.49,1.1,3.02,3.49,1.16,122.4347,10.8925,"2023-12-03 15:03:08.454686+08:00","Maasin"
"2023-12-03 15:03:10+08:00",2.0,250.34,0.08,0.89,75.1,0.41,3.51,4.48,1.24,120.5736,15.2216,"2023-12-03 15:03:10.945223+08:00","Mabalacat City"
"2023-12-03 15:03:12+08:00",2.0,313.76,0.69,4.97,66.52,5.48,5.21,9.26,2.44,121.0327,14.5503,"2023-12-03 15:03:12.434378+08:00","Makati City"
"2023-12-03 15:03:14+08:00",3.0,236.99,0.05,0.61,105.86,2.59,7.58,10.0,0.82,119.9379,15.6361,"2023-12-03 15:03:15.020413+08:00","Malabon"
"2023-12-03 15:03:17+08:00",1.0,176.91,0.02,0.76,38.98,0.14,0.5,0.64,0.66,125.0833,8.15,"2023-12-03 15:03:17.396175+08:00","Malaybalay"
"2023-12-03 15:03:19+08:00",2.0,230.31,0.12,0.81,65.8,0.65,4.01,5.84,0.81,120.8117,14.8419,"2023-12-03 15:03:19.840442+08:00","Malolos"
"2023-12-03 15:03:21+08:00",2.0,313.76,0.69,4.97,66.52,5.48,5.21,9.26,2.44,121.0409,14.5832,"2023-12-03 15:03:21.752905+08:00","Mandaluyong City"
"2023-12-03 15:03:24+08:00",1.0,223.64,0.22,1.78,52.21,2.06,1.52,2.15,1.57,123.9333,10.3333,"2023-12-03 15:03:24.459198+08:00","Mandaue City"
"2023-12-03 15:03:26+08:00",2.0,267.03,0.33,2.53,70.81,2.74,5.44,8.78,1.46,120.9822,14.6042,"2023-12-03 15:03:26.903587+08:00","Manila"
"2023-12-03 15:03:29+08:00",1.0,357.15,0.02,7.8,28.25,2.24,7.14,8.33,11.78,124.2928,7.9986,"2023-12-03 15:03:29.629820+08:00","Marawi"
"2023-12-03 15:03:31+08:00",1.0,195.27,0.07,0.85,55.79,0.63,1.93,2.58,0.07,125.4708,9.7339,"2023-12-03 15:03:31.918255+08:00","Mati"
"2023-12-03 15:03:33+08:00",2.0,267.03,0.33,2.53,70.81,2.74,5.44,8.78,1.46,120.9608,14.7369,"2023-12-03 15:03:34.080514+08:00","Meycauayan"
"2023-12-03 15:03:35+08:00",2.0,257.02,0.11,0.65,68.67,0.25,2.63,3.15,0.92,120.9031,15.7161,"2023-12-03 15:03:36.091126+08:00","Muñoz"
"2023-12-03 15:03:37+08:00",1.0,191.93,0.01,0.31,54.36,3.4,3.05,4.08,0.16,123.1814,13.6192,"2023-12-03 15:03:37.904942+08:00","Naga"
"2023-12-03 15:03:40+08:00",2.0,267.03,0.33,2.53,70.81,2.74,5.44,8.78,1.46,120.95,14.6667,"2023-12-03 15:03:40.362367+08:00","Navotas"
"2023-12-03 15:03:42+08:00",2.0,247.0,0.11,0.79,77.96,1.42,4.62,5.95,1.12,120.2828,14.8292,"2023-12-03 15:03:42.264333+08:00","Olongapo"
"2023-12-03 15:03:43+08:00",1.0,213.62,0.1,1.07,40.77,0.34,1.89,2.36,0.86,124.6075,11.0064,"2023-12-03 15:03:43.529262+08:00","Ormoc"
"2023-12-03 15:03:46+08:00",2.0,188.59,0.01,0.24,60.8,0.31,1.16,1.42,0.07,123.8044,8.4858,"2023-12-03 15:03:46.258483+08:00","Oroquieta"
"2023-12-03 15:03:48+08:00",1.0,190.26,0.02,0.69,50.78,0.28,0.78,0.98,0.33,123.8333,8.15,"2023-12-03 15:03:48.342056+08:00","Ozamiz City"
"2023-12-03 15:03:49+08:00",1.0,210.29,0.01,0.75,47.92,0.26,0.77,0.94,1.2,123.43700000000001,7.8257,"2023-12-03 15:03:50.050921+08:00","Pagadian"
"2023-12-03 15:03:52+08:00",2.0,243.66,0.14,0.89,65.09,0.37,3.55,4.48,0.98,121.0833,15.55,"2023-12-03 15:03:52.357488+08:00","Palayan City"
"2023-12-03 15:03:54+08:00",1.0,277.04,0.05,5.66,25.75,1.34,1.77,2.4,1.77,125.6842,7.3081,"2023-12-03 15:03:54.513890+08:00","Panabo"
"2023-12-03 15:03:56+08:00",2.0,313.76,0.69,4.97,66.52,5.48,5.21,9.26,2.44,121.0175,14.4816,"2023-12-03 15:03:56.597928+08:00","Paranaque City"
"2023-12-03 15:03:57+08:00",2.0,313.76,0.69,4.97,66.52,5.48,5.21,9.26,2.44,121.065,14.587,"2023-12-03 15:03:58.133702+08:00","Pasig"
"2023-12-03 15:04:00+08:00",2.0,193.6,0.07,0.5,62.23,1.09,3.87,10.53,0.0,118.7333,9.7333,"2023-12-03 15:04:00.715883+08:00","Puerto Princesa City"
"2023-12-03 15:04:02+08:00",2.0,263.69,0.34,2.79,63.66,3.31,5.69,9.54,1.25,121.0333,14.6333,"2023-12-03 15:04:02.385978+08:00","Quezon City"
"2023-12-03 15:04:05+08:00",2.0,320.44,0.11,0.92,60.08,0.25,5.33,5.8,1.55,121.6201,17.1189,"2023-12-03 15:04:05.538730+08:00","Roxas"
"2023-12-03 15:04:07+08:00",1.0,193.6,0.03,0.25,57.94,0.62,2.32,3.36,0.07,123.4242,10.9447,"2023-12-03 15:04:07.415853+08:00","Sagay"
"2023-12-03 15:04:09+08:00",2.0,233.65,0.1,0.87,69.38,0.95,3.98,6.31,0.98,120.5431,14.7678,"2023-12-03 15:04:10.145928+08:00","Samal"
"2023-12-03 15:04:12+08:00",2.0,243.66,0.12,0.68,69.38,0.32,3.22,3.95,0.86,120.8931,15.5448,"2023-12-03 15:04:12.387964+08:00","San Carlos"
"2023-12-03 15:04:14+08:00",2.0,273.71,0.02,0.22,74.39,0.52,9.04,10.88,0.87,120.3166,16.6159,"2023-12-03 15:04:15.004169+08:00","San Fernando"
"2023-12-03 15:04:17+08:00",2.0,247.0,0.04,0.47,65.8,0.11,3.01,3.21,0.52,121.8712,17.8927,"2023-12-03 15:04:17.563962+08:00","San Jose"
"2023-12-03 15:04:19+08:00",2.0,223.64,0.08,0.53,64.37,0.49,4.97,7.19,0.46,121.0453,14.8139,"2023-12-03 15:04:20.162161+08:00","San Jose del Monte"
"2023-12-03 15:04:21+08:00",2.0,260.35,0.02,0.18,75.82,0.09,1.23,1.34,0.52,120.4583,17.7422,"2023-12-03 15:04:21.577909+08:00","San Juan"
"2023-12-03 15:04:24+08:00",2.0,236.99,0.15,1.08,65.8,0.94,3.49,5.05,1.01,120.6197,14.9696,"2023-12-03 15:04:24.440358+08:00","San Pablo"
"2023-12-03 15:04:26+08:00",1.0,367.17,0.18,1.97,48.64,0.43,7.36,8.15,3.64,121.8833,17.2,"2023-12-03 15:04:26.356090+08:00","San Pedro"
"2023-12-03 15:04:28+08:00",2.0,243.66,0.12,0.68,69.38,0.32,3.22,3.95,0.86,120.9378,15.4238,"2023-12-03 15:04:29.200525+08:00","Santa Rosa"
"2023-12-03 15:04:31+08:00",2.0,303.75,0.03,0.59,80.11,0.38,4.73,5.42,1.88,120.4449,17.2939,"2023-12-03 15:04:31.311874+08:00","Santiago"
"2023-12-03 15:04:33+08:00",1.0,367.17,0.2,3.09,44.35,0.67,7.79,8.82,3.86,121.7645,17.3997,"2023-12-03 15:04:33.263090+08:00","Santo Tomas"
"2023-12-03 15:04:35+08:00",1.0,193.6,0.05,0.32,57.94,0.77,2.02,3.09,0.16,122.9667,10.8,"2023-12-03 15:04:35.883313+08:00","Silay City"
"2023-12-03 15:04:38+08:00",2.0,220.3,0.05,0.72,71.53,0.94,4.59,5.28,1.03,122.4042,9.7519,"2023-12-03 15:04:38.394078+08:00","Sipalay"
"2023-12-03 15:04:40+08:00",1.0,195.27,0.07,0.85,55.79,0.63,1.93,2.58,0.07,125.5,9.75,"2023-12-03 15:04:41.017994+08:00","Surigao City"
"2023-12-03 15:04:42+08:00",1.0,201.94,0.07,0.92,49.35,6.97,2.27,2.97,0.37,123.7336,13.3586,"2023-12-03 15:04:42.997276+08:00","Tabaco"
"2023-12-03 15:04:45+08:00",1.0,263.69,0.02,0.51,50.78,0.12,3.28,3.47,0.75,121.4443,17.4189,"2023-12-03 15:04:45.755372+08:00","Tabuk"
"2023-12-03 15:04:47+08:00",1.0,188.59,0.04,0.38,46.49,0.18,1.74,2.32,0.25,125.0,11.25,"2023-12-03 15:04:47.700358+08:00","Tacloban City"
"2023-12-03 15:04:49+08:00",1.0,267.03,0.01,1.48,44.7,0.27,2.28,2.62,2.09,124.6764,6.6925,"2023-12-03 15:04:49.361639+08:00","Tacurong"
"2023-12-03 15:04:51+08:00",2.0,240.33,0.48,3.6,77.96,7.27,3.46,6.74,1.35,120.9337,14.1059,"2023-12-03 15:04:51.237084+08:00","Tagaytay City"
"2023-12-03 15:04:52+08:00",2.0,313.76,0.69,4.97,66.52,5.48,5.21,9.26,2.44,121.0792,14.5243,"2023-12-03 15:04:53.203312+08:00","Taguig"
"2023-12-03 15:04:54+08:00",1.0,186.92,0.01,0.3,55.08,0.22,3.89,5.62,0.05,122.9226,14.1343,"2023-12-03 15:04:55.003475+08:00","Talisay"
"2023-12-03 15:04:56+08:00",2.0,230.31,0.56,4.07,69.38,7.21,2.9,6.51,1.35,121.1498,14.0863,"2023-12-03 15:04:56.360483+08:00","Tanauan"
"2023-12-03 15:04:58+08:00",1.0,186.92,0.0,0.35,49.35,0.17,1.27,1.85,0.27,126.1986,9.0783,"2023-12-03 15:04:58.362021+08:00","Tandag"
"2023-12-03 15:04:59+08:00",1.0,193.6,0.05,0.32,57.94,0.77,2.02,3.09,0.16,122.9306,10.6339,"2023-12-03 15:05:00.052461+08:00","Tangub"
"2023-12-03 15:05:01+08:00",2.0,200.27,0.03,0.52,62.23,0.44,1.67,1.97,0.6,123.1583,9.5153,"2023-12-03 15:05:01.497516+08:00","Tanjay"
"2023-12-03 15:05:04+08:00",2.0,257.02,0.13,0.89,77.25,0.44,3.76,4.5,1.43,120.5986,15.4889,"2023-12-03 15:05:04.771333+08:00","Tarlac City"
"2023-12-03 15:05:06+08:00",1.0,195.27,0.12,0.98,55.79,0.97,2.8,5.79,0.34,121.5911,14.0289,"2023-12-03 15:05:06.358778+08:00","Tayabas"
"2023-12-03 15:05:07+08:00",2.0,201.94,0.07,0.79,63.66,1.21,1.97,2.83,0.97,123.6333,10.3833,"2023-12-03 15:05:08.246453+08:00","Toledo City"
"2023-12-03 15:05:10+08:00",1.0,277.04,0.02,0.77,55.79,0.17,3.93,4.2,1.03,121.7269,17.6131,"2023-12-03 15:05:10.363463+08:00","Tuguegarao"
"2023-12-03 15:05:11+08:00",2.0,270.37,0.23,1.59,82.97,1.19,3.45,4.16,2.22,120.5711,15.9761,"2023-12-03 15:05:12.111583+08:00","Urdaneta"
"2023-12-03 15:05:14+08:00",1.0,208.62,0.07,0.83,46.49,0.29,1.45,1.76,0.69,124.5725,11.1089,"2023-12-03 15:05:14.719971+08:00","Valencia"
"2023-12-03 15:05:16+08:00",2.0,267.03,0.33,2.53,70.81,2.74,5.44,8.78,1.46,120.9667,14.7,"2023-12-03 15:05:16.767828+08:00","Valenzuela"
"2023-12-03 15:05:19+08:00",1.0,191.93,0.03,0.24,57.22,0.98,2.29,3.35,0.1,123.0778,10.9,"2023-12-03 15:05:19.570718+08:00","Victorias"
"2023-12-03 15:05:21+08:00",2.0,267.03,0.01,0.13,80.11,0.19,2.8,3.42,0.33,120.3869,17.5747,"2023-12-03 15:05:21.864804+08:00","Vigan"
"2023-12-03 15:05:24+08:00",1.0,247.0,0.11,3.21,42.92,0.98,1.69,1.99,1.3,122.0696,6.9135,"2023-12-03 15:05:24.627731+08:00","Zamboanga City"
"2023-12-03 18:00:00+08:00",2.0,303.75,0.0,1.65,79.39,0.87,11.55,13.46,2.0,119.9811,16.1561,"2023-12-03 18:00:00.699074+08:00","Alaminos"
"2023-12-03 18:00:04+08:00",2.0,300.41,0.0,4.97,60.08,2.12,3.02,3.92,2.01,120.5833,15.15,"2023-12-03 18:00:04.966134+08:00","Angeles City"
"2023-12-03 18:00:08+08:00",1.0,297.07,0.0,1.65,55.79,0.33,2.84,3.24,1.03,121.19,15.6181,"2023-12-03 18:00:08.379319+08:00","Antipolo"
"2023-12-03 18:00:10+08:00",1.0,191.93,0.0,0.68,50.07,1.76,3.45,4.49,0.27,123.5085,12.2285,"2023-12-03 18:00:10.576687+08:00","Bacolod"
"2023-12-03 18:00:13+08:00",1.0,400.54,0.0,11.65,58.65,7.87,5.12,9.35,3.55,120.929,14.459000000000001,"2023-12-03 18:00:13.805612+08:00","Bacoor"
"2023-12-03 18:00:15+08:00",1.0,223.64,0.0,1.82,50.78,0.89,1.55,2.27,0.73,122.8333,10.5333,"2023-12-03 18:00:15.748229+08:00","Bago City"
"2023-12-03 18:00:18+08:00",1.0,310.42,0.0,3.13,59.37,1.27,8.73,9.68,2.0,120.5931,16.4164,"2023-12-03 18:00:18.580326+08:00","Baguio"
"2023-12-03 18:00:20+08:00",1.0,213.62,0.0,1.27,57.22,0.78,2.16,2.51,0.7,123.1228,9.5911,"2023-12-03 18:00:20.477781+08:00","Bais"
"2023-12-03 18:00:21+08:00",2.0,240.33,0.0,1.84,65.8,0.85,1.51,2.71,0.94,120.5361,14.6761,"2023-12-03 18:00:22.027447+08:00","Balanga"
"2023-12-03 18:00:23+08:00",2.0,253.68,0.0,1.21,65.09,0.28,0.92,1.09,0.76,120.5649,18.0554,"2023-12-03 18:00:24.084430+08:00","Batac City"
"2023-12-03 18:00:25+08:00",1.0,243.66,0.0,7.88,51.5,4.47,2.42,3.43,1.69,121.05,13.75,"2023-12-03 18:00:26.024007+08:00","Batangas City"
"2023-12-03 18:00:27+08:00",1.0,213.62,0.0,1.41,56.51,0.62,1.91,2.2,0.95,122.8011,9.3636,"2023-12-03 18:00:28.841281+08:00","Bayawan"
"2023-12-03 18:00:30+08:00",1.0,191.93,0.0,0.36,51.5,6.56,2.4,3.53,0.13,123.7135,13.4083,"2023-12-03 18:00:32.223288+08:00","Baybay"
"2023-12-03 18:00:33+08:00",1.0,223.64,0.0,3.04,23.25,0.72,1.6,2.17,0.86,125.7675,8.7561,"2023-12-03 18:00:35.210351+08:00","Bayugan"
"2023-12-03 18:00:36+08:00",1.0,257.02,0.0,4.97,46.49,1.1,2.8,3.72,1.08,125.0336,11.0725,"2023-12-03 18:00:38.296990+08:00","Bislig"
"2023-12-03 18:00:40+08:00",1.0,323.77,0.0,10.54,52.93,11.21,4.54,7.49,2.63,121.0807,14.3427,"2023-12-03 18:00:41.134970+08:00","Biñan"
"2023-12-03 18:00:42+08:00",1.0,203.61,0.0,1.19,47.92,0.38,1.1,1.62,0.41,124.0055,11.0517,"2023-12-03 18:00:42.949448+08:00","Bogo"
"2023-12-03 18:00:44+08:00",1.0,190.26,0.0,0.94,53.64,0.37,2.26,3.96,0.07,125.4319,11.6081,"2023-12-03 18:00:45.038441+08:00","Borongan"
"2023-12-03 18:00:46+08:00",1.0,201.94,0.0,0.7,46.49,0.24,0.63,0.77,0.46,125.5436,8.9492,"2023-12-03 18:00:46.905184+08:00","Butuan"
"2023-12-03 18:00:48+08:00",1.0,216.96,0.0,1.1,45.42,0.47,1.08,1.35,0.78,125.5344,9.1236,"2023-12-03 18:00:49.028794+08:00","Cabadbaran"
"2023-12-03 18:00:50+08:00",2.0,283.72,0.0,2.51,66.52,0.6,3.14,3.88,1.52,120.9667,15.4833,"2023-12-03 18:00:50.401683+08:00","Cabanatuan City"
"2023-12-03 18:00:51+08:00",1.0,323.77,0.0,10.54,52.93,11.21,4.54,7.49,2.63,121.1262,14.2726,"2023-12-03 18:00:51.744583+08:00","Cabuyao"
"2023-12-03 18:00:54+08:00",1.0,195.27,0.0,0.31,55.79,0.1,0.69,0.98,0.17,123.2856,10.9506,"2023-12-03 18:00:54.289072+08:00","Cadiz"
"2023-12-03 18:00:55+08:00",1.0,236.99,0.0,2.96,48.64,1.19,0.82,1.29,1.11,124.6472,8.4822,"2023-12-03 18:00:55.761129+08:00","Cagayan de Oro"
"2023-12-03 18:00:56+08:00",1.0,236.99,0.0,5.57,52.93,4.47,2.86,4.61,1.33,120.8133,13.9324,"2023-12-03 18:00:57.119279+08:00","Calaca"
"2023-12-03 18:00:59+08:00",1.0,323.77,0.0,10.54,52.93,11.21,4.54,7.49,2.63,121.1653,14.2117,"2023-12-03 18:00:59.422153+08:00","Calamba"
"2023-12-03 18:01:00+08:00",1.0,196.93,0.0,4.33,57.94,3.13,1.59,1.98,0.21,121.1803,13.4117,"2023-12-03 18:01:01.526049+08:00","Calapan"
"2023-12-03 18:01:03+08:00",1.0,190.26,0.0,0.44,47.21,3.64,2.85,7.72,0.39,124.6,12.0667,"2023-12-03 18:01:03.714769+08:00","Calbayog City"
"2023-12-03 18:01:06+08:00",2.0,353.81,0.0,7.97,62.23,4.41,3.71,7.09,2.85,120.9667,14.65,"2023-12-03 18:01:06.470900+08:00","Caloocan City"
"2023-12-03 18:01:08+08:00",2.0,263.69,0.0,0.37,70.81,0.31,5.02,5.4,0.73,120.4517,17.1947,"2023-12-03 18:01:09.031680+08:00","Candon"
"2023-12-03 18:01:10+08:00",1.0,280.38,0.0,5.66,38.27,1.12,2.95,3.57,3.58,123.1964,10.3864,"2023-12-03 18:01:10.457385+08:00","Canlaon"
"2023-12-03 18:01:12+08:00",1.0,236.99,0.0,3.81,47.92,2.92,2.88,4.52,2.22,123.6402,10.1061,"2023-12-03 18:01:12.429403+08:00","Carcar"
"2023-12-03 18:01:13+08:00",1.0,323.77,0.0,10.54,52.93,11.21,4.54,7.49,2.63,121.0576,14.3132,"2023-12-03 18:01:13.875063+08:00","Carmona"
"2023-12-03 18:01:15+08:00",1.0,196.93,0.0,0.6,49.35,0.43,3.1,6.0,0.49,124.8861,11.7753,"2023-12-03 18:01:16.172882+08:00","Catbalogan"
